City_ID,City,Lat,Lng,Max Temp,Humidity,Cloudiness,Wind Speed,Country,Date
0,la'ie,21.6477,-157.9253,295.71,83,62,1.79,US,1707496580
1,grytviken,-54.2811,-36.5092,277.32,79,92,6.98,GS,1707496580
2,port-aux-francais,-49.35,70.2167,280.71,93,72,15.29,TF,1707496581
3,west island,-12.1568,96.8225,301.14,78,45,3.6,CC,1707496581
4,el granada,37.5027,-122.4694,282.31,92,0,0.45,US,1707496582
5,albany,42.6001,-73.9662,282.24,59,84,1.79,US,1707496201
6,castillos,-34.1667,-53.8333,303.36,56,33,6.55,UY,1707496582
7,hawaiian paradise park,19.5933,-154.9731,293.17,95,100,3.6,US,1707496583
8,hithadhoo,-0.6,73.0833,301.68,70,99,6.12,MV,1707496583
9,klaksvik,62.2266,-6.589,273.66,74,100,10.03,FO,1707496583
10,severo-yeniseyskiy,60.3725,93.0408,266.25,91,100,3.13,RU,1707496584
11,nar'yan-mar,67.6713,53.087,258.77,95,87,3.58,RU,1707496584
12,argostolion,38.1811,20.489,289.68,56,40,2.06,GR,1707496585
13,avarua,-21.2078,-159.775,300.18,74,75,5.66,CK,1707496586
14,olonkinbyen,70.9221,-8.7187,270.5,63,6,5.25,SJ,1707496586
15,k'asp'i,41.9252,44.4257,280.55,79,36,1.84,GE,1707496586
16,fort mcmurray,56.7268,-111.381,265.92,73,100,2.57,CA,1707496587
17,longyearbyen,78.2186,15.6401,267.06,73,75,2.06,SJ,1707496587
18,sitka,57.0531,-135.33,276.09,70,100,9.26,US,1707496521
19,puerto natales,-51.7236,-72.4875,290.4,48,75,11.32,CL,1707496348
20,constantia,44.1833,28.65,285.53,70,39,5.24,RO,1707496588
21,blackmans bay,-43.0167,147.3167,283.22,78,7,2.83,AU,1707496588
22,nurota,40.5614,65.6886,284.63,34,17,4.31,UZ,1707496589
23,robore,-18.3333,-59.75,306.2,58,20,9.26,BO,1707496589
24,medicine hat,50.0501,-110.6683,269.43,86,100,5.14,CA,1707496471
25,trairi,-3.2778,-39.2689,304.58,60,68,5.74,BR,1707496297
26,edinburgh of the seven seas,-37.0676,-12.3116,292.79,90,94,11.11,SH,1707496590
27,arraial do cabo,-22.9661,-42.0278,305.13,70,20,7.2,BR,1707496591
28,utrik,11.2278,169.8474,299.39,72,100,10.08,MH,1707496591
29,flin flon,54.7682,-101.865,258.06,92,100,2.57,CA,1707496592
30,padang,-0.9492,100.3543,298.18,88,71,1.65,ID,1707496592
31,waitangi,-43.9535,-176.5597,285.9,63,3,3.42,NZ,1707496592
32,lompoc,34.6391,-120.4579,284.7,65,100,1.54,US,1707496583
33,belmonte,-15.8631,-38.8828,299.08,77,98,2.29,BR,1707496593
34,afaahiti,-17.75,-149.2833,298.08,81,98,3.66,PF,1707496593
35,port mathurin,-19.6833,63.4167,300.33,74,70,9.7,MU,1707496511
36,atasu,48.6814,71.6433,275.63,77,98,10.21,KZ,1707496594
37,adamstown,-25.066,-130.1015,298.34,88,100,6.46,PN,1707496595
38,nova sintra,14.8667,-24.7167,294.68,70,0,6.53,CV,1707496595
39,college,64.8569,-147.8028,261.73,82,75,0.0,US,1707496595
40,vargem grande,-3.5431,-43.9158,306.63,49,77,2.69,BR,1707496596
41,natal,-5.795,-35.2094,305.51,58,40,7.2,BR,1707496391
42,olinda,-8.0089,-34.8553,304.0,70,40,5.66,BR,1707496596
43,puerto ayora,-0.7393,-90.3518,302.13,82,89,2.68,EC,1707496597
44,san fernando de monte cristi,19.8667,-71.65,299.23,47,0,7.45,DO,1707496597
45,miramichi,47.0043,-65.4654,272.17,85,95,2.46,CA,1707496598
46,churachandpur,24.3333,93.6667,280.47,58,5,0.51,IN,1707496598
47,mejit,10.2753,170.8646,299.34,78,100,10.48,MH,1707496598
48,tiksi,71.6872,128.8694,247.03,100,100,1.5,RU,1707496599
49,vila velha,-20.3297,-40.2925,305.12,64,20,5.66,BR,1707496599
50,nuuk,64.1835,-51.7216,266.49,63,75,9.26,GL,1707496599
51,alofi,-19.0595,-169.9187,298.09,94,40,5.14,NU,1707496600
52,sola,-13.8833,167.55,301.13,83,100,12.07,VU,1707496600
53,kingston,17.997,-76.7936,301.68,58,20,3.6,JM,1707496096
54,suez,29.9737,32.5263,290.07,41,0,2.82,EG,1707496601
55,kamaishi,39.2667,141.8833,274.26,80,90,1.15,JP,1707496601
56,geraldton,-28.7667,114.6,297.38,33,0,1.54,AU,1707496602
57,petropavlovsk-kamchatsky,53.0452,158.6483,260.48,85,75,3.0,RU,1707496602
58,bethel,41.3712,-73.414,283.07,73,75,2.57,US,1707496603
59,ola,59.5833,151.2833,245.45,88,29,3.61,RU,1707496603
60,port alfred,-33.5906,26.891,293.81,86,27,2.68,ZA,1707496603
61,haiku-pauwela,20.9219,-156.3051,294.84,84,0,2.06,US,1707496604
62,jayapura,-2.5333,140.7,298.81,91,89,1.62,ID,1707496604
63,karratha,-20.7377,116.8463,303.51,58,15,3.35,AU,1707496604
64,vilyuchinsk,52.9306,158.4028,261.3,87,28,3.72,RU,1707496605
65,cabo san lucas,22.8909,-109.9124,294.68,69,75,1.03,MX,1707496538
66,moree,-29.4667,149.85,298.88,66,96,4.0,AU,1707496605
67,san carlos del zulia,9.0,-71.9135,299.69,79,99,2.2,VE,1707496606
68,tabou,4.423,-7.3528,302.67,65,2,4.22,CI,1707496606
69,hermanus,-34.4187,19.2345,291.37,72,20,6.39,ZA,1707496606
70,stanley,54.868,-1.6985,279.92,95,100,5.66,GB,1707496607
71,wailua homesteads,22.0669,-159.378,293.59,89,100,3.6,US,1707496607
72,batticaloa,7.7102,81.6924,300.11,70,90,5.24,LK,1707496608
73,bhamo,24.2667,97.2333,287.97,55,17,0.63,MM,1707496608
74,hakui,36.8833,136.7833,276.86,77,7,1.33,JP,1707496608
75,sikasso,10.9167,-7.0,310.87,6,10,2.74,ML,1707496609
76,bilibino,68.0546,166.4372,245.72,99,100,0.59,RU,1707496609
77,papatowai,-46.5619,169.4708,285.66,62,100,4.01,NZ,1707496609
78,anadyr,64.75,177.4833,261.43,84,75,8.0,RU,1707496610
79,al jawf,29.5,38.75,291.49,25,86,4.57,SA,1707496610
80,okakarara,-20.5833,17.4333,302.58,36,84,2.83,NA,1707496610
81,harper,4.375,-7.7169,302.63,65,12,4.06,LR,1707496611
82,ilulissat,69.2167,-51.1,257.16,55,75,10.8,GL,1707496611
83,saipan,15.1355,145.701,298.54,83,20,6.17,MP,1707496611
84,singaparna,-7.3515,108.111,296.02,96,44,0.46,ID,1707496612
85,pointe-noire,-4.7761,11.8635,301.77,80,73,3.8,CG,1707496612
86,iqaluit,63.7506,-68.5145,247.0,70,20,2.06,CA,1707496613
87,vorgashor,67.5833,63.95,252.7,93,8,5.41,RU,1707496613
88,yellowknife,62.456,-114.3525,250.05,88,40,3.6,CA,1707496613
89,enewetak,11.3474,162.3373,299.62,81,100,9.3,MH,1707496614
90,new norfolk,-42.7826,147.0587,283.87,95,0,0.86,AU,1707496614
91,labasa,-16.4167,179.3833,299.15,89,100,1.78,FJ,1707496398
92,tazacorte,28.629,-17.9293,296.69,96,40,3.09,ES,1707496615
93,isabela,6.7085,121.9711,299.06,82,38,1.77,PH,1707496338
94,kohlu,29.8962,69.252,284.87,25,0,2.17,PK,1707496616
95,grand falls-windsor,48.9332,-55.6649,271.21,84,99,0.79,CA,1707496616
96,ibague,4.4389,-75.2322,298.1,65,40,2.57,CO,1707496616
97,thunder bay,48.4001,-89.3168,277.14,100,100,2.57,CA,1707496429
98,hammerfest,70.6634,23.6821,266.4,68,20,8.23,NO,1707496617
99,crane,31.3974,-102.3501,287.77,28,100,7.26,US,1707496617
100,kapa'a,22.0752,-159.319,294.33,88,100,3.6,US,1707496618
101,kodiak,57.79,-152.4072,276.88,93,100,9.77,US,1707496618
102,onati,43.0178,-2.4068,287.47,91,100,2.18,ES,1707496619
103,isafjordur,66.0755,-23.124,271.17,59,40,6.69,IS,1707496619
104,mili,6.0815,171.735,300.38,84,96,9.4,MH,1707496620
105,kirensk,57.7853,108.1119,267.02,96,100,3.13,RU,1707496399
106,ribeira grande,38.5167,-28.7,289.37,72,20,3.6,PT,1707496620
107,makubetsu,45.3714,141.8211,264.72,78,100,2.68,JP,1707496621
108,polyarnyy,69.1989,33.4478,256.22,95,100,2.46,RU,1707496621
109,jamestown,42.097,-79.2353,286.49,63,40,6.17,US,1707496621
110,bredasdorp,-34.5322,20.0403,293.31,63,25,7.81,ZA,1707496622
111,espanola,35.9911,-106.0806,275.7,47,3,2.27,US,1707496514
112,saldanha,-33.0117,17.9442,295.18,70,5,6.09,ZA,1707496623
113,ushuaia,-54.8,-68.3,285.96,67,75,7.72,AR,1707496577
114,norcasia,5.5778,-74.8852,302.96,60,70,1.65,CO,1707496623
115,kikwit,-5.041,18.8162,298.54,81,78,2.83,CD,1707496624
116,hsinchu,24.8036,120.9686,286.96,81,66,1.79,TW,1707496624
117,itaocara,-21.6692,-42.0761,304.5,59,40,1.12,BR,1707496625
118,tefe,-3.3542,-64.7114,305.21,66,20,3.6,BR,1707496625
119,chernyshevskiy,63.0128,112.4714,238.79,100,94,0.94,RU,1707496625
120,puerto baquerizo moreno,-0.9,-89.6,301.7,74,40,3.09,EC,1707496626
121,atafu village,-8.5421,-172.5159,302.41,75,100,4.41,TK,1707496626
122,chonchi,-42.6128,-73.8092,291.71,38,96,1.73,CL,1707496626
123,pangody,65.85,74.4859,258.59,95,100,4.92,RU,1707496627
124,tralee,52.2704,-9.7026,283.29,71,75,3.6,IE,1707496627
125,fortuna,40.5982,-124.1573,279.07,100,75,0.0,US,1707496628
126,kayyerkan,69.3786,87.7439,250.53,81,100,2.5,RU,1707496628
127,georgetown,5.4112,100.3354,303.12,71,20,3.6,MY,1707496628
128,tolanaro,-25.0319,46.9987,299.19,83,40,5.14,MG,1707496629
129,kudahuvadhoo,2.6708,72.8944,300.95,74,91,6.05,MV,1707496630
130,luderitz,-26.6481,15.1594,295.88,53,62,13.66,NA,1707496630
131,lorengau,-2.0226,147.2712,300.46,80,100,3.82,PG,1707496631
132,asti,44.8979,8.2068,283.56,98,100,1.86,IT,1707496632
133,klyuchi,52.2667,79.1667,277.12,79,100,11.2,RU,1707496632
134,novyy urengoy,66.0833,76.6333,258.75,96,100,4.85,RU,1707496633
135,myitkyina,25.3833,97.4,286.89,60,1,1.2,MM,1707496633
136,brisas de zicatela,15.8369,-97.0419,301.44,74,20,2.57,MX,1707496633
137,san patricio,28.017,-97.5169,298.07,62,99,5.89,US,1707496634
138,novomykolayivka,47.9781,35.9102,279.32,93,100,2.78,UA,1707496634
139,vadso,70.0744,29.7487,258.24,78,75,3.6,NO,1707496635
140,barrancabermeja,7.0653,-73.8547,302.33,74,40,1.54,CO,1707496635
141,portland,45.5234,-122.6762,279.25,95,100,0.89,US,1707496538
142,buta,2.7858,24.73,301.77,33,0,1.08,CD,1707496636
143,keflavik,64.0049,-22.5624,270.39,74,75,4.63,IS,1707496636
144,tonneins,44.3921,0.3124,290.27,80,84,3.47,FR,1707496637
145,vengerovo,55.6848,76.7471,269.81,93,100,4.86,RU,1707496637
146,aykhal,66.0,111.5,240.51,100,100,1.69,RU,1707496637
147,duba,27.3513,35.6901,295.02,48,71,3.3,SA,1707496638
148,lebu,-37.6167,-73.65,290.9,67,56,4.93,CL,1707496638
149,uturoa,-16.7333,-151.4333,300.13,79,100,1.7,PF,1707496638
150,fort bragg,35.139,-79.006,285.83,66,40,3.6,US,1707496639
151,samfya,-11.3649,29.5565,294.94,81,92,1.39,ZM,1707496639
152,margaret river,-33.95,115.0667,294.62,55,0,2.86,AU,1707496640
153,ivdel',60.6911,60.4206,264.92,95,100,3.58,RU,1707496640
154,tabas,33.5959,56.9244,286.27,22,0,2.06,IR,1707496640
155,carnarvon,-24.8667,113.6333,301.77,49,0,9.13,AU,1707496641
156,miranda,3.2499,-76.2281,300.22,60,83,1.83,CO,1707496641
157,thompson,55.7435,-97.8558,256.24,85,100,4.12,CA,1707496641
158,acarau,-2.8856,-40.12,304.91,60,46,8.03,BR,1707496642
159,san andres,12.5847,-81.7006,302.16,54,20,4.12,CO,1707496638
160,tomatlan,19.9333,-105.25,299.96,54,3,1.59,MX,1707496643
161,nabire,-3.3667,135.4833,299.51,87,100,0.67,ID,1707496643
162,encinitas,33.037,-117.292,284.85,93,40,1.54,US,1707496491
163,zapala,-38.8992,-70.0544,300.57,27,0,7.11,AR,1707496644
164,tamanrasset,22.785,5.5228,297.1,9,0,2.57,DZ,1707496644
165,yigo village,13.5361,144.8886,298.77,76,20,6.69,GU,1707496645
166,carloforte,39.145,8.3058,288.83,72,100,1.8,IT,1707496645
167,aripuana,-9.1667,-60.6333,301.05,73,100,1.24,BR,1707496447
168,fuglafjordur,62.244,-6.814,273.41,82,100,8.99,FO,1707496646
169,coahuayana de hidalgo,18.7,-103.6583,301.52,47,3,1.43,MX,1707496646
170,posto fiscal rolim de moura,-13.0833,-62.2667,307.84,45,67,2.04,BR,1707496554
171,gwadar,25.1216,62.3254,294.75,60,0,3.81,PK,1707496647
172,nantucket,41.2835,-70.0995,277.23,81,100,4.63,US,1707496476
173,codrington,-38.2667,141.9667,287.19,74,89,6.03,AU,1707496648
174,bowen,-20.0167,148.2333,298.88,76,68,5.18,AU,1707496525
175,emerald,-23.5333,148.1667,296.67,74,56,4.38,AU,1707496648
176,malindi,-3.2175,40.1191,302.24,74,20,7.2,KE,1707496649
177,kerikeri,-35.2268,173.9474,292.54,92,92,1.4,NZ,1707496649
178,pointe aux piments,-20.0628,57.5131,300.66,73,99,10.21,MU,1707496649
179,amahai,-3.3333,128.9167,299.32,86,75,2.84,ID,1707496650
180,maridi,4.9158,29.4742,303.34,33,63,0.13,SS,1707496650
181,rutana,-3.8667,30.1,289.33,89,56,0.62,BI,1707496651
182,colonia,50.9333,6.95,286.46,77,0,3.09,DE,1707496651
183,udachny,66.4167,112.4,241.73,74,100,1.33,RU,1707496651
184,bereket,39.2446,55.5154,287.16,38,19,6.06,TM,1707496652
185,badger,64.8,-147.5333,261.68,82,20,0.0,US,1707496652
186,komsomolets,53.7453,62.0708,260.27,83,7,7.04,KZ,1707496652
187,tommot,58.9564,126.2925,241.9,100,94,0.55,RU,1707496653
188,whitehorse,60.7161,-135.0538,259.27,82,100,11.32,CA,1707496653
189,kuching,1.55,110.3333,300.95,96,40,1.54,MY,1707496369
190,raychikhinsk,49.7838,129.4121,245.73,100,64,0.62,RU,1707496654
191,yarmouth,41.7057,-70.2286,277.57,84,100,2.06,US,1707496655
192,bazarak,35.3129,69.5152,269.96,52,5,4.34,AF,1707496655
193,aasiaat,68.7098,-52.8699,255.75,81,100,9.56,GL,1707496655
194,guerrero negro,27.9769,-114.0611,287.27,61,100,5.98,MX,1707496182
195,hailar,49.2,119.7,247.06,100,67,2.28,CN,1707496656
196,wewak,-3.5534,143.6268,298.73,89,100,3.4,PG,1707496656
197,talnakh,69.4865,88.3972,248.83,81,77,2.55,RU,1707496657
198,rancho palos verdes,33.7445,-118.387,285.0,93,40,2.24,US,1707496657
199,happy valley-goose bay,53.3168,-60.3315,270.32,68,75,3.09,CA,1707496657
200,broken hill,-31.95,141.4333,297.01,29,0,6.2,AU,1707496658
201,gadzhiyevo,69.2551,33.3362,255.45,96,100,2.48,RU,1707496658
202,fiambala,-27.6871,-67.6149,301.82,42,1,4.7,AR,1707496658
203,moussoro,13.6408,16.4901,299.73,8,7,3.87,TD,1707496659
204,inhapim,-19.5492,-42.12,302.48,63,28,4.3,BR,1707496659
205,tres arroyos,-38.3739,-60.2798,295.02,90,100,4.12,AR,1707496660
206,al qubbah,32.7616,22.2424,283.83,79,0,4.71,LY,1707496660
207,bardai,11.65,7.2333,303.48,12,33,3.53,NG,1707496661
208,eyl,7.9803,49.8164,298.31,78,10,9.21,SO,1707496661
209,yaren,-0.5472,166.916,301.27,75,91,4.63,NR,1707496661
210,invercargill,-46.4,168.35,285.94,73,100,2.24,NZ,1707496662
211,saint-joseph,-21.3667,55.6167,300.36,82,100,6.88,RE,1707496662
212,lihue,21.9789,-159.3672,293.92,88,100,3.6,US,1707496662
213,diboll,31.1871,-94.781,294.44,86,100,3.63,US,1707496663
214,muroto-misakicho,33.2833,134.15,282.72,66,21,2.57,JP,1707496663
215,acapetahua,15.2833,-92.7,304.63,38,5,3.39,MX,1707496663
216,sirte,31.2089,16.5887,291.37,42,43,3.53,LY,1707496664
217,flying fish cove,-10.4217,105.6791,299.97,89,75,3.09,CX,1707496664
218,walvis bay,-22.9575,14.5053,299.68,50,91,4.63,NA,1707496665
219,lubang,13.8584,120.124,299.44,76,18,7.49,PH,1707496665
220,somerset east,-32.7217,25.588,291.42,69,0,7.07,ZA,1707496665
221,bengkulu,-3.8004,102.2655,298.03,91,96,1.75,ID,1707496666
222,jackson,42.4165,-122.8345,276.7,91,100,0.0,US,1707496666
223,torghay,49.6339,63.4981,269.56,83,100,6.15,KZ,1707496666
224,aars,56.804,9.5144,272.94,89,100,10.03,DK,1707496667
225,taltal,-25.4,-70.4833,296.56,73,23,2.55,CL,1707496667
226,zaraza,9.3503,-65.3245,307.13,42,80,2.23,VE,1707496667
227,punta arenas,-53.15,-70.9167,286.21,67,75,6.17,CL,1707496668
228,daru,-9.0763,143.2092,298.43,87,89,1.82,PG,1707496668
229,coquimbo,-29.9533,-71.3436,294.0,83,40,5.66,CL,1707496668
230,vilaka,57.1846,27.6722,259.84,95,23,2.24,LV,1707496669
231,roses,42.262,3.1769,289.32,59,80,2.24,ES,1707496669
232,katsuura,35.1333,140.3,281.03,84,77,3.77,JP,1707496669
233,xinshi,31.047,113.141,276.68,90,33,1.7,CN,1707496670
234,nemuro,43.3236,145.575,268.44,78,100,0.61,JP,1707496670
235,dixon,38.4455,-121.8233,279.42,96,75,0.0,US,1707496671
236,narvik,68.4384,17.4272,269.82,76,85,4.16,NO,1707496671
237,ulladulla,-35.35,150.4667,292.08,70,82,6.41,AU,1707496671
238,bondoukou,8.0333,-2.8,309.4,8,10,2.67,CI,1707496672
239,urangan,-25.3,152.9,296.59,89,32,2.68,AU,1707496672
240,mandalgovi,45.7625,106.2708,257.27,74,80,4.46,MN,1707496672
241,milford haven,51.7128,-5.0341,282.96,94,79,4.89,GB,1707496673
242,yelizovo,53.1873,158.3805,261.23,56,75,3.0,RU,1707496673
243,fisterra,42.9049,-9.2629,284.68,83,100,9.24,ES,1707496674
244,kill devil hills,36.0307,-75.676,283.15,86,40,2.06,US,1707496674
245,rabo de peixe,37.8,-25.5833,290.92,99,20,7.2,PT,1707496674
246,erenhot,43.6475,111.9767,254.51,94,10,1.66,CN,1707496675
247,sale,34.0389,-6.8166,289.61,100,75,8.23,MA,1707496675
248,fuling,29.7022,107.3919,281.53,76,91,1.06,CN,1707496675
249,weno,7.4515,151.8468,300.45,69,100,8.2,FM,1707496676
250,atraulia,26.3333,82.95,285.2,42,0,1.4,IN,1707496676
251,fortaleza,-3.7227,-38.5247,305.41,83,75,6.17,BR,1707496500
252,kavaratti,10.5669,72.642,301.32,73,73,1.8,IN,1707496677
253,karpinsk,59.7654,60.0085,261.54,95,100,2.51,RU,1707496677
254,argo,37.6333,22.7333,288.59,66,0,1.04,GR,1707496678
255,maumere,-8.6199,122.2111,300.06,82,20,1.45,ID,1707496678
256,ust-nera,64.5667,143.2,235.67,100,83,0.98,RU,1707496678
257,guanica,17.9716,-66.908,302.39,59,0,1.86,PR,1707496679
258,san juan de miraflores,-12.1629,-76.9635,303.8,64,67,4.27,PE,1707496679
259,general conesa,-40.1,-64.4333,303.65,25,100,4.79,AR,1707496679
260,tual,-5.6667,132.75,301.89,79,85,6.26,ID,1707496680
261,port elizabeth,-33.918,25.5701,295.98,82,40,7.72,ZA,1707496432
262,sisimiut,66.9395,-53.6735,259.83,95,100,4.2,GL,1707496680
263,ghanzi,-21.5667,21.7833,303.26,32,92,2.57,BW,1707496681
264,san,13.3034,-4.8956,308.01,5,56,3.41,ML,1707496682
265,beloomut,54.9448,39.3394,261.56,94,81,3.08,RU,1707496682
266,itaituba,-4.2761,-55.9836,304.24,70,40,5.14,BR,1707496682
267,vershino-darasunskiy,52.35,115.5167,251.83,99,15,1.27,RU,1707496683
268,mariehamn,60.0973,19.9348,267.49,86,0,3.09,AX,1707496683
269,bamboo flat,11.7,92.7167,299.2,65,81,2.06,IN,1707496684
270,tocache,-8.1842,-76.5125,305.57,53,57,0.8,PE,1707496684
271,port lincoln,-34.7333,135.8667,290.33,81,0,8.21,AU,1707496435
272,san luis de la loma,17.2706,-100.8939,301.09,60,0,2.62,MX,1707496685
273,inhambane,-23.865,35.3833,301.14,83,40,5.14,MZ,1707496685
274,pisco,-13.7,-76.2167,300.38,78,0,4.63,PE,1707496686
275,wynyard,-41.0,145.7167,285.58,75,32,3.73,AU,1707496616
276,mount pearl,47.5166,-52.7813,273.68,97,100,7.2,CA,1707496474
277,luis correia,-2.8792,-41.6669,305.15,62,40,8.75,BR,1707496687
278,suntar,62.1444,117.6319,236.96,100,100,0.89,RU,1707496687
279,buka,40.8108,69.1986,284.47,37,1,2.83,UZ,1707496688
280,itoman,26.1247,127.6694,289.16,67,75,7.72,JP,1707496688
281,abepura,-2.6333,140.5833,298.6,94,40,2.06,ID,1707496688
282,hirara,24.8,125.2833,290.07,77,100,8.75,JP,1707496689
283,saint-pierre,-21.3393,55.4781,300.97,57,0,3.09,RE,1707496689
284,port saint john's,-31.6229,29.5448,297.47,89,34,1.85,ZA,1707496690
285,kapuskasing,49.4169,-82.4331,278.15,87,100,4.63,CA,1707496502
286,mount isa,-20.7333,139.5,298.02,83,40,3.6,AU,1707496690
287,saint-louis,16.3333,-15.0,310.95,6,0,3.43,SN,1707496691
288,salalah,17.0151,54.0924,298.2,57,0,1.54,OM,1707496691
289,umba,66.6871,34.3429,260.29,87,100,3.11,RU,1707496692
290,san antonio de pale,-1.4014,5.6325,300.7,77,100,2.61,GQ,1707496692
291,prado,-17.3411,-39.2208,298.72,77,86,2.72,BR,1707496595
292,midvagur,62.0511,-7.1939,273.61,86,75,5.66,FO,1707496693
293,igarka,67.4667,86.5833,257.13,90,100,4.68,RU,1707496694
294,terenozek,45.05,64.9833,280.79,63,92,5.39,KZ,1707496694
295,alice springs,-23.7,133.8833,301.05,26,70,4.02,AU,1707496695
296,bantogon,6.5333,124.0333,298.5,83,30,1.53,PH,1707496695
297,fada,9.5667,8.3,304.76,14,21,2.46,NG,1707496696
298,altai,46.3722,96.2583,259.96,48,5,0.92,MN,1707496696
299,loikaw,19.6742,97.2094,289.36,47,1,1.82,MM,1707496697
300,kangding,30.0513,101.9603,271.36,58,100,2.69,CN,1707496538
301,st. john's,47.5649,-52.7093,274.14,97,100,6.26,CA,1707496493
302,sur,22.5667,59.5289,294.64,61,0,2.17,OM,1707496698
303,balcesti,44.6167,23.95,287.09,60,72,2.09,RO,1707496698
304,mumford,5.2618,-0.759,301.52,69,39,4.72,GH,1707496699
305,as sulayyil,20.4607,45.5779,294.29,30,1,5.38,SA,1707496699
306,fort st. john,56.2499,-120.8529,258.09,85,40,2.06,CA,1707496663
307,ardabil,38.2498,48.2933,277.9,70,100,1.03,IR,1707496700
308,slave lake,55.2834,-114.769,264.14,86,100,3.09,CA,1707496700
309,dhulia,20.9,74.7833,298.6,31,7,2.4,IN,1707496701
310,hadibu,12.65,54.0333,298.7,69,59,7.06,YE,1707496701
311,namdrik,5.5994,168.1028,300.18,75,100,8.1,MH,1707496702
312,rudbar,30.15,62.6,290.07,18,0,2.29,AF,1707496702
313,kenai,60.5544,-151.2583,273.23,81,100,12.35,US,1707496533
314,rikaze,29.25,88.8833,268.96,17,0,0.66,CN,1707496703
315,hamilton,39.1834,-84.5333,288.77,67,100,6.17,US,1707496179
316,mahalapye,-23.1041,26.8142,302.92,36,58,3.22,BW,1707496703
317,lerwick,60.1545,-1.1494,276.15,60,100,11.13,GB,1707496704
318,ravar,31.2656,56.8055,283.51,21,0,1.14,IR,1707496704
319,bulayevo,54.9056,70.4439,266.74,88,100,4.85,KZ,1707496704
320,qaqortoq,60.7167,-46.0333,262.17,62,100,3.88,GL,1707496705
321,sao vicente,-23.9631,-46.3919,307.25,49,75,3.6,BR,1707496705
322,kabinda,-6.1333,24.4833,296.0,87,92,2.04,CD,1707496705
323,yuzhno-kurilsk,44.0306,145.8556,265.58,82,91,0.13,RU,1707496706
324,mtwango,-9.0167,34.8,289.72,96,100,1.89,TZ,1707496706
325,barabinsk,55.3571,78.357,271.72,99,100,1.5,RU,1707496707
326,krasnoturansk,54.3186,91.5639,266.61,93,100,2.68,RU,1707496707
327,hoemul-li,41.4339,129.67,269.96,84,96,1.56,KP,1707496707
328,castelli,-25.9468,-60.6195,311.72,32,55,2.59,AR,1707496708
329,emirdag,39.0197,31.15,281.55,58,45,2.65,TR,1707496708
330,usogorsk,63.4106,48.6872,257.96,97,44,1.78,RU,1707496709
331,selfoss,63.9331,-20.9971,265.21,80,100,3.99,IS,1707496709
332,susuman,62.7833,148.1667,234.81,100,99,0.89,RU,1707496709
333,tarko-sale,64.9225,77.785,259.14,98,97,4.31,RU,1707496710
334,juchipila,21.4167,-103.1167,297.35,21,0,1.91,MX,1707496710
335,maun,-19.9833,23.4167,302.13,54,75,2.57,BW,1707496710
336,colorado,-22.8375,-51.9731,308.12,34,97,3.5,BR,1707496510
337,progreso,21.2833,-89.6667,302.57,41,52,4.56,MX,1707496711
338,sao jose da coroa grande,-8.8978,-35.1478,303.01,65,65,6.3,BR,1707496711
339,rongelap,11.1635,166.8941,299.3,74,100,10.16,MH,1707496712
340,siwa oasis,29.2041,25.5195,290.69,25,7,3.14,EG,1707496712
341,porto novo,6.4965,2.6036,304.05,51,35,4.4,BJ,1707496712
342,siasi,5.5462,120.8145,300.35,80,78,4.88,PH,1707496713
343,mariental,-24.6333,17.9667,308.77,17,85,8.68,NA,1707496713
344,raja,8.4596,25.678,303.59,20,1,2.1,SS,1707496714
345,south venice,27.0531,-82.4243,297.58,56,20,4.12,US,1707496714
346,black river,18.0264,-77.8487,299.73,51,0,1.58,JM,1707496714
347,long beach,33.767,-118.1892,285.49,92,40,4.02,US,1707496550
348,turabah,21.2141,41.6331,293.78,54,5,5.17,SA,1707496715
349,kiama,-34.6833,150.8667,294.82,80,79,0.89,AU,1707496715
350,kaa-khem,51.6833,94.7333,258.38,93,100,0.49,RU,1707496716
351,astrakhan,46.3497,48.0408,275.08,86,75,5.0,RU,1707496716
352,tura,25.5198,90.2201,287.19,55,0,1.47,IN,1707496716
353,yeppoon,-23.1333,150.7333,297.03,73,8,6.04,AU,1707496717
354,sunne,59.8376,13.143,266.33,92,87,3.12,SE,1707496717
355,lhasa,29.65,91.1,266.43,28,0,2.42,CN,1707496718
356,revda,56.801,59.9303,257.89,92,100,4.09,RU,1707496718
357,xilin hot,43.9667,116.0333,250.7,98,12,2.5,CN,1707496718
358,makokou,0.5738,12.8642,302.02,53,82,1.25,GA,1707496719
359,copalnic manastur,47.5,23.6833,282.25,83,100,2.14,RO,1707496719
360,labytnangi,66.6572,66.4183,255.19,82,88,8.3,RU,1707496475
361,nova vicosa,-17.8919,-39.3719,300.47,70,65,3.98,BR,1707496510
362,tazovsky,67.4667,78.7,254.84,97,97,4.86,RU,1707496720
363,chibougamau,49.9168,-74.3659,273.94,75,100,5.66,CA,1707496720
364,boma,7.0805,-2.1697,310.79,15,56,1.33,GH,1707496721
365,amalapuram,16.5833,82.0167,296.51,92,22,2.12,IN,1707496721
366,prince rupert,54.3161,-130.3201,276.98,69,100,9.26,CA,1707496721
367,hassi messaoud,31.6804,6.0729,297.07,12,40,7.72,DZ,1707496722
368,livny,52.4253,37.6069,256.86,98,6,1.84,RU,1707496722
369,pemba,-12.974,40.5178,301.54,83,75,4.63,MZ,1707496722
370,demirci,39.0461,28.6589,280.69,74,2,1.16,TR,1707496723
371,khandyga,62.6667,135.6,228.78,100,84,0.88,RU,1707496723
372,minas de marcona,-15.2119,-75.1103,298.38,60,43,5.94,PE,1707496723
373,nuku'alofa,-21.1333,-175.2,299.34,100,20,2.06,TO,1707496724
374,belogorsk,50.9158,128.4611,248.55,100,96,1.71,RU,1707496724
375,bandrele,-12.9067,45.1914,299.01,94,96,2.06,YT,1707496724
376,sinabang,2.4803,96.3801,300.44,78,100,0.52,ID,1707496725
377,fomboni,-12.28,43.7425,301.33,77,70,2.18,KM,1707496725
378,kruisfontein,-34.0033,24.7314,294.75,72,27,7.92,ZA,1707496725
379,howrah,22.5892,88.3103,291.15,59,4,1.54,IN,1707496726
380,paita,-5.0892,-81.1144,300.91,73,90,3.47,PE,1707496726
381,ghadamis,30.1337,9.5007,292.27,15,50,3.38,LY,1707496726
382,acatlan de osorio,18.2,-98.05,298.84,47,3,1.96,MX,1707496727
383,shimoda,34.6667,138.95,278.76,69,82,1.61,JP,1707496727
384,abu zabad,12.35,29.25,301.17,15,0,4.67,SD,1707496727
385,anton lizardo,19.05,-95.9833,299.94,72,9,0.83,MX,1707496728
386,koundara,12.4833,-13.3,313.28,8,97,1.05,GN,1707496728
387,carutapera,-1.195,-46.02,302.8,70,44,3.88,BR,1707496728
388,kuta,-8.7233,115.1723,301.12,83,20,2.68,ID,1707496729
389,bandarbeyla,9.4942,50.8122,299.19,71,22,8.42,SO,1707496729
390,toccoa,34.5773,-83.3324,286.28,59,100,1.54,US,1707496729
391,binjai,3.6001,98.4854,299.12,89,50,0.88,ID,1707496730
392,ibipeba,-11.6408,-42.0111,299.45,68,99,2.48,BR,1707496730
393,tibati,6.4667,12.6333,303.67,20,46,1.1,CM,1707496730
394,tindouf,27.6711,-8.1474,300.4,7,99,12.35,DZ,1707496731
395,makueni boma,-1.8041,37.6203,295.53,67,77,2.58,KE,1707496731
396,oranjemund,-28.55,16.4333,293.21,74,0,8.69,NA,1707496731
397,port isabel,26.0734,-97.2086,299.17,76,0,6.17,US,1707496732
398,talalayivka,50.9578,31.9209,271.86,79,91,3.8,UA,1707496732
399,newman,37.3138,-121.0208,278.74,85,75,1.2,US,1707496732
400,isola di capo rizzuto,38.96,17.0933,289.92,77,0,6.69,IT,1707496733
401,palikir - national government center,6.9248,158.1611,300.56,78,100,2.06,FM,1707496733
402,bu'aale,1.0833,42.5833,301.6,63,52,6.49,SO,1707496733
403,kasane,-17.8167,25.15,308.2,24,20,4.63,BW,1707496734
404,sterling,39.0062,-77.4286,287.17,51,40,2.57,US,1707496734
405,santa cruz,-17.8,-63.1667,297.18,83,100,6.17,BO,1707496734
406,mirny,62.5353,113.9611,239.54,100,95,0.81,RU,1707496735
407,dudinka,69.4058,86.1778,246.3,92,96,2.24,RU,1707496735
408,charlotte,35.2271,-80.8431,285.48,64,100,3.6,US,1707496576
409,gondar,12.6,37.4667,291.48,42,39,2.88,ET,1707496736
410,sao joao da barra,-21.6403,-41.0511,306.2,72,8,7.53,BR,1707496736
411,port macquarie,-31.4333,152.9167,294.2,85,100,4.82,AU,1707496736
412,uliastay,47.7417,96.8444,255.98,78,15,3.18,MN,1707496737
413,saint-paul,-21.0096,55.2707,301.21,82,100,0.31,RE,1707496737
414,saint-philippe,-21.3585,55.7679,300.92,84,100,7.57,RE,1707496738
415,san pedro pochutla,15.7333,-96.4667,299.99,56,23,2.25,MX,1707496738
416,vernon,50.2581,-119.2691,272.84,75,52,0.0,CA,1707496738
417,santiago de cao,-7.9589,-79.2392,298.22,83,19,5.14,PE,1707496739
418,villa gesell,-37.2639,-56.973,298.74,77,90,7.27,AR,1707496739
419,remire-montjoly,4.9167,-52.2667,304.17,66,95,5.66,GF,1707496739
420,smolenskaya,44.7887,38.8018,284.69,85,52,5.31,RU,1707496740
421,shahrak,34.1074,64.3052,268.17,69,0,2.3,AF,1707496448
422,zvezdnyy,57.7325,56.3147,253.59,99,100,2.0,RU,1707496740
423,shinyanga,-3.6667,33.4333,296.46,73,79,2.62,TZ,1707496741
424,schwarzenfeld,49.3894,12.1397,284.51,86,100,1.56,DE,1707496741
425,bykhaw,53.5193,30.2469,267.5,95,98,2.22,BY,1707496742
426,magadan,59.5667,150.8,245.11,82,29,3.22,RU,1707496742
427,isiolo,0.3546,37.5822,296.64,69,95,2.68,KE,1707496742
428,mbandaka,0.0487,18.2603,301.13,57,90,0.71,CD,1707496743
429,pacific grove,36.6177,-121.9166,283.25,89,0,1.54,US,1707496743
430,bandon,51.7469,-8.7425,282.92,83,71,4.33,IE,1707496743
431,pestovo,58.5938,35.8024,257.34,98,96,2.02,RU,1707496744
432,alghero,40.5589,8.3181,289.2,72,20,3.6,IT,1707496483
433,kailua-kona,19.6406,-155.9956,295.13,80,0,2.06,US,1707496745
434,east london,-33.0153,27.9116,292.67,88,100,5.66,ZA,1707496745
435,mugia,43.1041,-9.2179,284.77,84,100,8.64,ES,1707496745
436,harstad,68.799,16.5293,271.01,93,100,12.07,NO,1707496746
437,rio claro,-22.4114,-47.5614,308.19,30,68,1.05,BR,1707496746
438,emporia,38.4039,-96.1817,283.44,66,0,2.06,US,1707496559
439,hit,33.6416,42.8251,290.3,37,100,3.13,IQ,1707496747
440,yanchep,-31.55,115.6833,301.27,31,0,2.67,AU,1707496747
441,loukhi,66.0764,33.0381,259.69,88,100,2.82,RU,1707496747
442,san pedro,14.35,121.0167,299.72,78,20,4.47,PH,1707496748
443,las khorey,11.1595,48.1967,299.5,79,44,5.96,SO,1707496748
444,urengoy,65.9667,78.3667,260.73,95,100,4.33,RU,1707496749
445,mstera,56.3789,41.92,255.96,98,98,2.39,RU,1707496749
446,cape coast,5.1053,-1.2466,301.93,69,36,4.83,GH,1707496749
447,qui nhon,13.7667,109.2333,294.76,89,84,6.12,VN,1707496750
448,yayladagi,35.9025,36.0627,283.86,85,16,1.8,TR,1707496750
449,mogocha,53.7333,119.7667,247.88,100,97,1.22,RU,1707496750
450,pine bluff,34.2284,-92.0032,291.11,89,100,4.63,US,1707496551
451,ternate,0.8,127.4,299.88,85,97,3.18,ID,1707496751
452,roma,43.2128,-75.4557,286.38,55,100,3.6,US,1707496564
453,cole harbour,44.6724,-63.4751,273.13,74,20,2.06,CA,1707496752
454,floro,61.5996,5.0328,273.13,47,0,5.66,NO,1707496753
455,thabazimbi,-24.5917,27.4116,299.01,54,74,4.53,ZA,1707496753
456,westport,41.1415,-73.3579,283.77,68,0,3.09,US,1707496606
457,sinop,41.7711,34.8709,282.39,68,3,3.33,TR,1707496754
458,zaragoza,41.6561,-0.8773,288.71,75,75,5.14,ES,1707496754
459,ugoofaaru,5.6667,73.0,300.96,74,31,5.93,MV,1707496755
460,collie,-33.3667,116.15,294.94,39,0,2.35,AU,1707496755
461,akureyri,65.6835,-18.0878,266.11,68,75,1.03,IS,1707496755
462,pangai,-19.8,-174.35,300.94,83,99,3.66,TO,1707496756
463,opuwo,-18.0607,13.84,303.02,43,39,0.18,NA,1707496756
464,mata-utu,-13.2816,-176.1745,302.13,81,100,7.58,WF,1707496756
465,tillaberi,14.2117,1.4531,304.71,7,83,2.24,NE,1707496757
466,primero de mayo,-32.2552,-58.4228,309.57,26,100,5.84,AR,1707496757
467,schuylkill haven,40.6307,-76.1711,283.23,73,55,0.89,US,1707496757
468,lata,40.1629,-8.3327,286.93,91,73,5.48,PT,1707496758
469,chapaev,50.2,51.1667,266.66,84,80,4.99,KZ,1707496758
470,belle fourche,44.6714,-103.8522,275.98,73,68,5.06,US,1707496758
471,i-n-salah,27.1935,2.4607,296.16,10,96,4.26,DZ,1707496759
472,callao,-12.0667,-77.15,304.66,74,100,5.14,PE,1707496759
473,humaita,-7.5061,-63.0208,304.66,69,97,1.34,BR,1707496715
474,chinde,26.8418,88.0763,281.72,57,0,2.25,NP,1707496760
475,shar,49.5886,81.0453,271.32,79,99,10.52,KZ,1707496760
476,mancio lima,-7.6142,-72.8958,305.19,66,75,1.03,BR,1707496761
477,kerns,46.9009,8.2765,282.99,88,75,1.03,CH,1707496761
478,hasaki,35.7333,140.8333,277.2,65,97,4.18,JP,1707496761
479,mogadishu,2.0371,45.3438,300.08,83,62,11.27,SO,1707496762
480,shadrinsk,56.0852,63.6335,257.03,90,35,4.5,RU,1707496762
481,kirakira,-10.4544,161.9205,299.68,89,100,7.45,SB,1707496762
482,uglegorsk,49.0833,142.0333,257.37,80,20,2.5,RU,1707496763
483,mount gambier,-37.8333,140.7667,288.67,72,72,4.53,AU,1707496763
484,tulun,54.5611,100.5792,265.52,94,100,1.87,RU,1707496763
485,novodvinsk,64.4165,40.8122,257.01,100,87,0.83,RU,1707496764
486,kurakhovo,47.9852,37.2821,278.7,95,100,2.72,UA,1707496764
487,dedovichi,57.5517,29.9502,256.0,95,5,0.88,RU,1707496764
488,darda,45.6281,18.6997,287.95,58,100,4.17,HR,1707496765
489,saint-memmie,48.9525,4.3841,286.16,92,100,5.12,FR,1707496765
490,kalkandere,40.928,40.4419,285.24,62,10,4.33,TR,1707496765
491,valparaiso,-33.0393,-71.6273,303.78,65,0,5.14,CL,1707496734
492,bir el hafey,34.9321,9.1932,289.65,20,90,8.99,TN,1707496766
493,sarai,53.7458,41.0213,263.03,95,96,3.95,RU,1707496766
494,gazojak,41.1875,61.4036,285.74,32,51,4.15,TM,1707496767
495,atar,20.5169,-13.0499,306.26,5,22,5.27,MR,1707496767
496,el calafate,-50.3408,-72.2768,288.98,55,100,3.9,AR,1707496767
497,kastoria,40.5167,21.2667,283.51,62,43,2.1,GR,1707496768
498,petrolina,-9.3986,-40.5008,302.18,74,75,2.06,BR,1707496768
499,mariinsk,56.2139,87.7472,274.77,84,100,8.06,RU,1707496768
500,deqen,29.9618,90.7188,265.79,25,0,1.68,CN,1707496769
501,isangel,-19.55,169.2667,298.99,91,100,6.66,VU,1707496769
502,gazli,40.1333,63.45,284.63,38,27,1.05,UZ,1707496770
503,ilhabela,-23.7781,-45.3581,302.37,71,69,3.12,BR,1707496593
504,tapes,-30.6733,-51.3958,303.32,65,20,5.33,BR,1707496770
505,ad dabbah,18.05,30.95,296.73,15,11,4.59,SD,1707496771
506,kerman,30.2832,57.0788,281.07,15,0,2.06,IR,1707496771
507,shingu,33.7333,135.9833,276.47,73,1,2.85,JP,1707496772
508,malinyi,-8.9333,36.1333,298.55,91,100,0.79,TZ,1707496772
509,uyuni,-20.4597,-66.825,290.22,16,16,5.88,BO,1707496773
510,launceston,-41.45,147.1667,285.82,66,40,6.69,AU,1707496773
511,okahandja,-21.9833,16.9167,303.92,28,100,3.43,NA,1707496773
512,banda aceh,5.5577,95.3222,299.18,85,70,4.41,ID,1707496774
513,port blair,11.6667,92.75,299.17,65,81,2.06,IN,1707496774
514,hami,42.8,93.45,270.8,63,0,3.47,CN,1707496775
515,el porvenir,13.7617,-87.3458,296.78,25,1,1.66,HN,1707496775
516,baiquan,47.5833,126.0833,252.8,100,87,0.88,CN,1707496775
517,sydney mines,46.2367,-60.2177,275.93,77,40,2.57,CA,1707496776
518,ranau,5.9538,116.6641,293.33,98,74,0.27,MY,1707496776
519,songjianghe,42.1859,127.479,260.44,98,100,1.31,CN,1707496776
520,shizunai-furukawacho,42.3339,142.3669,270.15,65,100,2.42,JP,1707496777
521,sinsang-ni,39.6503,127.4058,269.83,77,32,2.24,KP,1707496777
522,mil'kovo,55.6078,37.7956,263.88,92,97,2.89,RU,1707496777
523,essaouira,31.5125,-9.77,289.06,86,100,10.8,MA,1707496778
524,aguada de pasajeros,22.385,-80.8508,299.77,41,0,4.77,CU,1707496778
525,ketchikan,55.3422,-131.6461,276.14,75,100,3.09,US,1707496778
526,touros,-5.1989,-35.4608,303.52,66,29,6.26,BR,1707496779
527,cockburn town,21.4612,-71.1419,296.76,66,4,7.18,TC,1707496779
528,sakassou,7.4546,-5.2926,309.06,15,19,1.89,CI,1707496779
529,port augusta,-32.5,137.7667,294.39,56,0,4.56,AU,1707496780
530,luganville,-15.5333,167.1667,300.33,84,100,2.83,VU,1707496780
531,douentza,14.9951,-2.9517,306.28,5,65,1.52,ML,1707496781
532,ginir,7.1333,40.7,292.34,48,11,1.94,ET,1707496781
533,iskateley,67.6803,53.1512,258.72,95,87,3.58,RU,1707496781
534,liwale,-9.7667,37.9333,296.73,96,100,1.34,TZ,1707496782
535,cabedelo,-6.9811,-34.8339,305.52,70,34,5.48,BR,1707496483
536,vylkove,45.4021,29.586,284.92,59,31,3.99,UA,1707496782
537,gemena,3.25,19.7667,305.11,29,79,1.31,CD,1707496783
538,bathurst,-33.4166,149.5806,289.8,86,2,0.89,AU,1707496783
539,terenos,-20.4422,-54.8603,299.99,78,75,4.12,BR,1707496784
540,rio grande,-32.035,-52.0986,303.68,73,7,6.77,BR,1707496784
541,bayji,34.9311,43.487,289.14,52,100,3.44,IQ,1707496784
542,labrador city,52.9463,-66.9114,272.1,74,100,4.63,CA,1707496785
543,greymouth,-42.4667,171.2,285.1,85,85,1.59,NZ,1707496785
544,nema,57.5067,50.5011,246.37,100,85,1.58,RU,1707496786
545,katsuren-haebaru,26.3369,127.8719,289.16,70,100,4.63,JP,1707496786
546,xique xique,-10.8217,-42.7311,303.53,56,53,0.57,BR,1707496786
547,jiayuguan,39.8167,98.3,270.75,42,13,1.7,CN,1707496787
548,papao,-17.75,-149.55,298.97,82,89,3.96,PF,1707496787
549,tsiombe,-25.3,45.4833,298.74,81,52,3.89,MG,1707496787
550,atherton,53.5237,-2.4935,282.58,96,100,1.98,GB,1707496788
551,tenenkou,14.4572,-4.9169,307.55,5,98,2.83,ML,1707496788
552,stutterheim,-32.5708,27.424,289.02,95,62,2.99,ZA,1707496788
553,matthew town,20.95,-73.6667,298.8,53,14,8.15,BS,1707496789
554,petit valley,10.7,-61.5333,303.98,59,4,4.45,TT,1707496789
555,antsiranana,-12.2787,49.2917,299.1,89,100,2.17,MG,1707496789
556,ulsan,35.5372,129.3167,274.56,63,0,3.72,KR,1707496790
557,fale old settlement,-9.3852,-171.2468,302.5,75,99,5.6,TK,1707496790
558,petrovsk,52.3064,45.3917,258.29,96,10,4.32,RU,1707496790
559,noosa heads,-26.3833,153.15,296.67,76,93,6.36,AU,1707496791
560,ishpeming,46.4885,-87.6676,276.13,85,100,6.29,US,1707496791
561,akhaltsikhe,41.639,42.9826,275.0,94,73,1.63,GE,1707496791
562,yinchuan,38.4681,106.2731,272.02,53,0,3.48,CN,1707496757
563,jiquilisco,13.3167,-88.5833,303.08,44,1,2.63,SV,1707496792
564,buchanan,5.8808,-10.0467,302.91,68,5,5.25,LR,1707496793
565,rosarito,32.3333,-117.0333,284.53,71,83,0.34,MX,1707496793
566,oroqen zizhiqi,50.5667,123.7167,252.46,99,86,1.33,CN,1707496793
567,la ronge,55.1001,-105.2842,264.29,92,100,1.03,CA,1707496794
568,dryden,49.7833,-92.7503,266.31,86,100,5.14,CA,1707496794
569,rayachoti,14.05,78.75,295.4,77,1,2.59,IN,1707496794
570,andergrove,-21.0833,149.1833,297.95,73,27,6.21,AU,1707496795
571,damara,4.9608,18.7035,305.14,20,5,1.25,CF,1707496795
572,ulan bator,47.9077,106.8832,244.22,69,0,2.0,MN,1707496693
573,pontiac,42.6389,-83.2911,288.21,68,40,6.17,US,1707496796
574,kili,5.6439,169.1211,300.31,79,100,6.85,MH,1707496796
575,sandnessjoen,66.0217,12.6316,272.27,93,100,7.2,NO,1707496796
576,lodwar,3.1191,35.5973,307.3,30,16,6.73,KE,1707496797
577,acapulco de juarez,16.8634,-99.8901,301.05,65,0,2.06,MX,1707496787
578,kone,-21.0595,164.8658,297.69,85,100,1.53,NC,1707496798
579,tokar,18.4254,37.729,298.3,69,0,3.53,SD,1707496798
