City_ID,City,Lat,Lng,Max Temp,Humidity,Cloudiness,Wind Speed,Country,Date
0,blackmans bay,-43.0167,147.3167,287.22,80,22,0.45,AU,1707422675
1,anloga,5.7947,0.8973,300.6,75,24,5.32,GH,1707422675
2,port elizabeth,-33.918,25.5701,293.32,82,20,3.09,ZA,1707422416
3,pimampiro,0.4,-77.9667,297.2,56,81,1.45,EC,1707422676
4,vilyuchinsk,52.9306,158.4028,263.11,85,100,3.05,RU,1707422677
5,grytviken,-54.2811,-36.5092,279.02,92,94,9.4,GS,1707422677
6,red lion,39.9009,-76.6058,285.33,43,100,1.34,US,1707422678
7,haiku-pauwela,20.9219,-156.3051,298.8,64,20,3.09,US,1707422678
8,port-aux-francais,-49.35,70.2167,278.2,67,33,5.28,TF,1707422682
9,cabo san lucas,22.8909,-109.9124,297.38,59,100,2.57,MX,1707422683
10,tubay,9.1669,125.5239,296.65,87,61,1.68,PH,1707422683
11,nova sintra,14.8667,-24.7167,294.8,73,0,6.44,CV,1707422683
12,longyearbyen,78.2186,15.6401,263.06,73,20,4.63,SJ,1707422684
13,dudinka,69.4058,86.1778,248.49,95,6,2.24,RU,1707422684
14,puerto yuca,2.9383,-73.2083,305.79,53,99,1.21,CO,1707422685
15,nemuro,43.3236,145.575,268.57,67,6,6.92,JP,1707422685
16,lihue,21.9789,-159.3672,296.68,83,80,4.82,US,1707422576
17,siping,43.1633,124.3686,258.41,96,100,2.0,CN,1707422686
18,vorgashor,67.5833,63.95,264.31,83,100,6.46,RU,1707422686
19,hawaiian paradise park,19.5933,-154.9731,296.43,88,75,3.6,US,1707422687
20,dwarka,22.2394,68.9678,294.65,41,73,4.01,IN,1707422687
21,adamstown,-25.066,-130.1015,297.11,92,100,12.65,PN,1707422688
22,napanee,44.2501,-76.9494,281.1,67,100,2.46,CA,1707422396
23,tqvarch'eli,42.8404,41.6801,282.99,75,100,1.7,GE,1707422689
24,makoua,0.0069,15.6333,302.01,58,95,2.98,CG,1707422689
25,pisco,-13.7,-76.2167,301.18,74,0,9.26,PE,1707422690
26,invercargill,-46.4,168.35,284.27,91,47,0.89,NZ,1707422690
27,fada,9.5667,8.3,296.61,20,4,1.86,NG,1707422691
28,port mathurin,-19.6833,63.4167,300.18,75,90,10.77,MU,1707422691
29,ushuaia,-54.8,-68.3,285.94,58,75,1.54,AR,1707422533
30,margate,51.3813,1.3862,284.09,93,100,4.47,GB,1707422692
31,golere,16.2557,-14.1017,304.49,8,0,4.61,SN,1707422692
32,yellowknife,62.456,-114.3525,262.27,83,100,1.03,CA,1707422557
33,west island,-12.1568,96.8225,301.14,78,75,2.06,CC,1707422687
34,saint-philippe,-21.3585,55.7679,298.92,84,98,5.89,RE,1707422694
35,coahuayana de hidalgo,18.7,-103.6583,302.7,53,14,3.82,MX,1707422694
36,lodja,-3.4833,23.4333,296.68,82,37,0.86,CD,1707422695
37,bikenibeu village,1.3673,173.1241,303.13,74,75,5.66,KI,1707422695
38,road town,18.4167,-64.6167,296.2,83,20,1.54,VG,1707422696
39,gemerek,39.1834,36.0719,277.9,83,100,1.13,TR,1707422696
40,jamestown,42.097,-79.2353,287.92,37,0,3.6,US,1707422683
41,lospalos,-8.5186,127.0025,295.77,94,100,1.42,TL,1707422697
42,avesta,60.1455,16.1679,262.11,94,70,1.5,SE,1707422697
43,waitangi,-43.9535,-176.5597,289.72,71,24,1.34,NZ,1707422698
44,salta,-24.7859,-65.4117,299.48,61,40,2.06,AR,1707422423
45,olonkinbyen,70.9221,-8.7187,270.61,67,71,5.34,SJ,1707422699
46,college,64.8569,-147.8028,255.07,77,20,0.0,US,1707422699
47,vilyuysk,63.7553,121.6247,240.93,100,98,0.89,RU,1707422700
48,taylorville,39.5489,-89.2945,290.09,67,75,10.8,US,1707422700
49,puerto ayora,-0.7393,-90.3518,303.13,85,70,3.13,EC,1707422700
50,valparaiso,-33.0393,-71.6273,298.28,57,0,6.17,CL,1707422465
51,diego de almagro,-26.3667,-70.05,302.5,26,15,6.21,CL,1707422701
52,kalevala,65.2,31.1667,245.98,100,100,1.79,RU,1707422702
53,kittila,67.6647,24.8936,254.05,84,100,2.06,FI,1707422703
54,mejit,10.2753,170.8646,299.74,82,76,10.9,MH,1707422703
55,the pas,53.8251,-101.2541,263.16,85,100,7.72,CA,1707422704
56,bethel,41.3712,-73.414,285.2,43,0,0.45,US,1707422705
57,iqaluit,63.7506,-68.5145,253.0,65,75,1.03,CA,1707422667
58,posto fiscal rolim de moura,-13.0833,-62.2667,307.39,41,58,2.51,BR,1707422706
59,sittwe,20.15,92.9,292.57,51,0,6.2,MM,1707422706
60,enewetak,11.3474,162.3373,299.98,77,100,7.34,MH,1707422707
61,carutapera,-1.195,-46.02,300.58,82,54,4.1,BR,1707422707
62,hamilton,39.1834,-84.5333,289.84,37,0,8.75,US,1707422638
63,sampit,-2.5333,112.95,297.0,91,36,0.71,ID,1707422708
64,mandal,25.45,74.5667,285.79,30,18,1.71,IN,1707422709
65,acapulco de juarez,16.8634,-99.8901,301.8,64,29,3.85,MX,1707422553
66,thompson,55.7435,-97.8558,256.24,85,100,6.17,CA,1707422710
67,ta`u,-14.2336,-169.5144,301.19,82,100,11.19,AS,1707422710
68,bechar,31.6167,-2.2167,290.33,12,0,3.09,DZ,1707422711
69,udachny,66.4167,112.4,240.62,67,100,1.51,RU,1707422711
70,uturoa,-16.7333,-151.4333,301.12,83,97,7.23,PF,1707422712
71,whitehorse,60.7161,-135.0538,251.58,84,75,0.0,CA,1707422662
72,badger,64.8,-147.5333,255.02,72,20,0.0,US,1707422713
73,kodiak,57.79,-152.4072,275.88,93,100,9.26,US,1707422714
74,tisul',55.7611,88.3122,266.7,91,98,2.63,RU,1707422714
75,brisas de zicatela,15.8369,-97.0419,302.44,65,40,2.57,MX,1707422715
76,cannonvale,-20.2833,148.7,300.81,80,51,6.14,AU,1707422715
77,neryungri,56.6709,124.6491,238.0,100,75,0.96,RU,1707422715
78,edinburgh of the seven seas,-37.0676,-12.3116,292.05,74,88,6.54,SH,1707422716
79,malanje,-9.5402,16.341,292.52,91,55,0.36,AO,1707422716
80,marsabit,2.3284,37.9899,295.77,57,91,3.99,KE,1707422717
81,wailua homesteads,22.0669,-159.378,298.39,71,75,5.66,US,1707422717
82,fort bragg,35.139,-79.006,289.07,34,0,1.54,US,1707422718
83,am timan,11.0297,20.2827,301.15,17,32,2.5,TD,1707422718
84,puerto natales,-51.7236,-72.4875,288.4,47,75,14.4,CL,1707422719
85,nagqu,31.5,92.0,258.07,39,10,4.25,CN,1707422719
86,maracaju,-21.6144,-55.1683,303.65,55,92,3.36,BR,1707422720
87,avarua,-21.2078,-159.775,301.18,78,20,8.23,CK,1707422720
88,mgandu,-5.95,34.1333,292.43,85,88,1.04,TZ,1707422720
89,sitka,57.0531,-135.33,276.09,70,75,1.54,US,1707422721
90,burley,42.5357,-113.7928,277.13,69,100,3.6,US,1707422721
91,lompoc,34.6391,-120.4579,286.92,61,100,3.13,US,1707422473
92,bredasdorp,-34.5322,20.0403,291.57,72,13,2.31,ZA,1707422722
93,zaigrayevo,51.8336,108.2703,249.19,99,41,0.72,RU,1707422723
94,envira,-7.3,-70.2167,303.31,66,93,0.32,BR,1707422723
95,crane,31.3974,-102.3501,287.95,30,100,6.57,US,1707422724
96,sisimiut,66.9395,-53.6735,258.17,95,100,5.22,GL,1707422725
97,albany,42.6001,-73.9662,284.0,42,17,0.45,US,1707422534
98,tutoia,-2.7619,-42.2744,301.81,76,35,5.97,BR,1707422497
99,colonia,50.9333,6.95,285.86,86,100,5.14,DE,1707422726
100,ribeira grande,38.5167,-28.7,289.37,77,75,12.86,PT,1707422727
101,pachino,36.7186,15.0907,286.2,86,25,6.27,IT,1707422728
102,timaru,-44.4,171.25,286.52,90,100,1.79,NZ,1707422728
103,balykshi,47.0667,51.8667,276.15,93,40,5.0,KZ,1707422728
104,smirnykh,49.75,142.8333,251.08,93,18,2.24,RU,1707422729
105,horta,38.5333,-28.6333,288.95,83,75,12.86,PT,1707422730
106,polyarnyy,69.1989,33.4478,249.29,100,99,3.29,RU,1707422730
107,goz beida,13.95,20.55,295.78,19,3,3.86,TD,1707422731
108,tiksi,71.6872,128.8694,250.12,100,100,1.56,RU,1707422731
109,talnakh,69.4865,88.3972,248.26,84,82,1.72,RU,1707422732
110,lata,40.1629,-8.3327,289.16,96,100,4.07,PT,1707422732
111,stanley,54.868,-1.6985,274.92,93,75,8.23,GB,1707422733
112,ikungi,-5.1333,34.7667,291.74,85,43,1.36,TZ,1707422733
113,ornskoldsvik,63.2909,18.7153,261.68,92,100,1.54,SE,1707422734
114,paradip garh,20.3167,86.6167,294.12,52,0,1.91,IN,1707422734
115,bilibino,68.0546,166.4372,239.76,100,99,0.3,RU,1707422735
116,dryden,49.7833,-92.7503,274.31,100,100,5.66,CA,1707422735
117,antonio enes,-16.2325,39.9086,300.63,80,100,3.82,MZ,1707422736
118,smara,26.7384,-11.6719,296.58,8,100,3.48,EH,1707422736
119,lamarque,-39.423,-65.7021,306.82,16,14,5.23,AR,1707422737
120,anadyr,64.75,177.4833,263.43,85,40,6.0,RU,1707422737
121,tsiombe,-25.3,45.4833,296.85,95,1,1.24,MG,1707422738
122,isafjordur,66.0755,-23.124,266.41,78,68,1.7,IS,1707422738
123,san rafael,-34.6177,-68.3301,297.93,65,92,5.35,AR,1707422739
124,la'ie,21.6477,-157.9253,299.13,68,14,3.58,US,1707422739
125,kerikeri,-35.2268,173.9474,293.1,90,65,1.98,NZ,1707422740
126,alta,69.9689,23.2717,257.74,66,40,6.17,NO,1707422740
127,ndjole,-0.1783,10.7649,299.98,86,73,1.27,GA,1707422741
128,georgetown,5.4112,100.3354,301.12,86,20,1.54,MY,1707422714
129,arquitecto tomas romero pereira,-26.4833,-55.25,309.28,30,99,1.91,PY,1707422742
130,ilulissat,69.2167,-51.1,257.16,78,75,5.14,GL,1707422742
131,portland,45.5234,-122.6762,283.14,82,100,1.79,US,1707422610
132,darab,28.7519,54.5444,282.42,34,0,0.7,IR,1707422743
133,nguru,12.8791,10.4526,294.98,12,6,4.28,NG,1707422743
134,shamakhi,40.6314,48.6414,279.36,63,40,3.05,AZ,1707422743
135,kolonia town,6.964,158.206,300.87,73,100,9.03,FM,1707422744
136,barcelos,41.5388,-8.6151,288.23,90,100,5.13,PT,1707422745
137,porto novo,6.4965,2.6036,302.05,74,26,2.99,BJ,1707422745
138,nago,26.5881,127.9761,290.62,75,94,5.09,JP,1707422746
139,concepcion,-36.827,-73.0498,297.04,43,0,6.17,CL,1707422581
140,renfrew,55.872,-4.3925,275.55,86,100,8.75,GB,1707422746
141,bekovo,52.4663,43.712,258.47,94,24,4.76,RU,1707422747
142,horishni plavni,49.0097,33.6455,275.02,70,100,2.45,UA,1707422748
143,villa lugano,-34.6742,-58.4777,303.23,73,40,6.17,AR,1707422748
144,rawson,-43.3002,-65.1023,295.39,35,94,3.54,AR,1707422748
145,tocopilla,-22.092,-70.1979,298.42,66,0,3.95,CL,1707422749
146,mount pearl,47.5166,-52.7813,272.34,89,100,7.2,CA,1707422749
147,jaisalmer,26.9147,70.9181,289.77,32,0,0.41,IN,1707422750
148,abu jibeha,11.4562,31.2285,298.49,18,19,2.46,SD,1707422750
149,kaa-khem,51.6833,94.7333,247.26,91,100,0.8,RU,1707422466
150,kouango,4.9934,19.9619,302.06,29,30,1.07,CF,1707422751
151,kruisfontein,-34.0033,24.7314,289.77,81,3,1.72,ZA,1707422752
152,utrik,11.2278,169.8474,299.5,85,35,9.87,MH,1707422752
153,ambam,2.3833,11.2833,297.6,77,99,1.84,CM,1707422752
154,codrington,-38.2667,141.9667,285.66,84,100,3.37,AU,1707422753
155,sinabang,2.4803,96.3801,299.66,83,99,1.3,ID,1707422753
156,port alfred,-33.5906,26.891,291.03,90,4,1.43,ZA,1707422754
157,hermanus,-34.4187,19.2345,291.93,78,85,3.08,ZA,1707422754
158,laguna,38.421,-121.4238,283.87,81,100,1.54,US,1707422755
159,papatowai,-46.5619,169.4708,283.7,68,6,1.53,NZ,1707422755
160,vadso,70.0744,29.7487,258.24,85,75,5.14,NO,1707422756
161,kuta,-8.7233,115.1723,299.12,94,75,2.24,ID,1707422756
162,kapuskasing,49.4169,-82.4331,279.2,56,75,6.17,CA,1707422756
163,bestobe,52.4994,73.0975,274.94,96,100,16.0,KZ,1707422757
164,wellington,-41.2866,174.7756,291.52,69,100,5.14,NZ,1707422597
165,yemel'yanovo,56.1681,92.6767,265.6,93,40,2.0,RU,1707422758
166,terrace,54.5163,-128.6035,273.83,80,100,1.03,CA,1707422714
167,san javier,37.8063,-0.8374,290.75,70,100,3.13,ES,1707422759
168,hami,42.8,93.45,271.08,56,100,2.67,CN,1707422759
169,katsuura,35.1333,140.3,280.69,72,100,6.88,JP,1707422760
170,ust-nera,64.5667,143.2,239.81,100,100,1.02,RU,1707422760
171,qaqortoq,60.7167,-46.0333,258.03,68,0,6.33,GL,1707422761
172,west plains,36.7281,-91.8524,291.61,55,40,5.14,US,1707422761
173,puerto madero,14.7208,-92.4215,301.41,62,1,5.02,MX,1707422528
174,lebu,-37.6167,-73.65,289.58,68,74,8.64,CL,1707422574
175,pekanbaru,0.5333,101.45,299.33,100,40,0.0,ID,1707422750
176,toamasina,-18.1667,49.3833,298.15,94,75,2.06,MG,1707422763
177,namibe,-15.1961,12.1522,298.34,77,100,1.62,AO,1707422763
178,oranjestad,12.524,-70.027,302.12,71,20,5.66,AW,1707422764
179,luderitz,-26.6481,15.1594,293.45,71,44,9.61,NA,1707422764
180,worcester,42.3334,-71.8328,282.53,47,10,0.73,US,1707422580
181,beneditinos,-5.45,-42.3667,308.78,33,94,0.88,BR,1707422612
182,hithadhoo,-0.6,73.0833,301.32,76,100,4.7,MV,1707422766
183,iskateley,67.6803,53.1512,262.05,91,96,4.47,RU,1707422766
184,turuntayevo,52.2,107.6167,248.2,99,69,0.49,RU,1707422767
185,aldan,58.6031,125.3894,243.79,99,97,2.09,RU,1707422767
186,margaret river,-33.95,115.0667,293.65,47,0,2.91,AU,1707422768
187,nazir town,33.3061,73.4833,281.3,33,0,2.46,PK,1707422768
188,kourou,5.1552,-52.6478,302.18,73,42,4.16,GF,1707422769
189,miragoane,18.4423,-73.0876,299.02,54,0,4.58,HT,1707422769
190,taro,-8.3862,115.28,295.15,94,95,0.14,ID,1707422770
191,klyuchi,52.2667,79.1667,269.17,92,100,9.35,RU,1707422771
192,vanimo,-2.6741,141.3028,298.62,92,88,2.9,PG,1707422771
193,papao,-17.75,-149.55,301.85,92,100,7.65,PF,1707422772
194,tazacorte,28.629,-17.9293,298.69,15,0,8.23,ES,1707422772
195,connell,46.6635,-118.8611,282.23,78,68,1.79,US,1707422773
196,kodinsk,58.6881,99.1844,260.06,100,100,1.22,RU,1707422773
197,st. john's,47.5649,-52.7093,272.81,88,100,9.39,CA,1707422661
198,winnemucca,40.973,-117.7357,276.75,57,58,2.1,US,1707422774
199,guarapari,-20.6667,-40.4975,301.42,79,100,5.52,BR,1707422774
200,selfoss,63.9331,-20.9971,258.73,80,31,4.62,IS,1707422475
201,selkirk,50.1436,-96.8845,273.24,97,100,6.26,CA,1707422775
202,daqing,46.5833,125.0,257.31,94,99,1.35,CN,1707422776
203,bathsheba,13.2167,-59.5167,301.49,78,20,8.75,BB,1707422776
204,alofi,-19.0595,-169.9187,302.09,84,75,2.06,NU,1707422777
205,kone,-21.0595,164.8658,297.43,85,99,1.83,NC,1707422777
206,gamay,12.3854,125.2979,297.25,91,14,2.57,PH,1707422777
207,bardai,11.65,7.2333,294.3,17,7,4.41,NG,1707422778
208,ancud,-41.8697,-73.8203,291.04,60,100,2.78,CL,1707422594
209,punta arenas,-53.15,-70.9167,289.21,48,75,13.38,CL,1707422779
210,vorkuta,67.5,64.0,263.89,84,100,6.65,RU,1707422489
211,aasiaat,68.7098,-52.8699,246.41,100,98,3.41,GL,1707422780
212,saudarkrokur,65.7461,-19.6394,257.72,91,9,3.48,IS,1707422780
213,barra do bugres,-15.0725,-57.1811,304.18,61,91,4.67,BR,1707422781
214,kununurra,-15.7667,128.7333,300.14,89,100,0.0,AU,1707422781
215,porto velho,-8.7619,-63.9039,302.18,74,75,4.63,BR,1707422484
216,kuala belait,4.5833,114.1833,297.24,90,48,2.91,BN,1707422782
217,nykoping,58.753,17.0079,265.07,100,75,0.0,SE,1707422783
218,shimoda,34.6667,138.95,278.21,74,72,5.24,JP,1707422783
219,trevelin,-43.0858,-71.4639,297.86,38,98,2.74,AR,1707422784
220,kendari,-3.945,122.4989,297.57,94,90,0.99,ID,1707422784
221,tura,25.5198,90.2201,283.77,42,0,1.47,IN,1707422785
222,ulladulla,-35.35,150.4667,287.52,84,0,2.37,AU,1707422785
223,ataq,14.5377,46.8319,289.76,77,5,4.04,YE,1707422786
224,pailon,-17.65,-62.75,307.65,40,85,6.32,BO,1707422786
225,bata,1.8639,9.7658,302.07,89,20,2.06,GQ,1707422786
226,clinton,42.587,-82.9199,289.38,52,75,6.17,US,1707422507
227,olyokminsk,60.3736,120.4264,236.15,100,96,0.34,RU,1707422787
228,mwinilunga,-11.7358,24.4293,292.01,90,91,0.91,ZM,1707422788
229,bubaque,11.2833,-15.8333,299.91,76,98,6.94,GW,1707422788
230,carnarvon,-24.8667,113.6333,298.49,72,0,4.94,AU,1707422789
231,fuglafjordur,62.244,-6.814,270.41,63,100,7.64,FO,1707422789
232,morozovsk,48.3539,41.8261,273.58,100,100,2.98,RU,1707422659
233,talakan,50.3167,130.3667,245.86,100,89,0.64,RU,1707422790
234,anna regina,7.2644,-58.5077,301.07,68,41,4.26,GY,1707422791
235,tshikapa,-6.4167,20.8,296.14,92,64,0.42,CD,1707422791
236,jijel,36.8205,5.7667,285.12,76,0,1.54,DZ,1707422792
237,nyaunglebin,17.95,96.7333,293.02,62,0,1.08,MM,1707422792
238,saint-pierre,-21.3393,55.4781,298.97,78,100,2.06,RE,1707422793
239,morant bay,17.8815,-76.4093,300.94,62,45,5.71,JM,1707422794
240,port lincoln,-34.7333,135.8667,289.1,82,9,5.71,AU,1707422794
241,san martin,-33.081,-68.4681,301.45,42,89,7.86,AR,1707422794
242,gavrilov-yam,57.3018,39.8533,258.12,90,100,6.56,RU,1707422795
243,taroa,8.7058,171.2275,300.55,79,98,10.05,MH,1707422795
244,gadzhiyevo,69.2551,33.3362,248.23,100,99,3.06,RU,1707422796
245,nouadhibou,20.931,-17.0347,295.14,60,3,5.66,MR,1707422796
246,tibanbang,6.6315,126.1055,298.78,85,58,2.69,PH,1707422797
247,stornoway,58.2093,-6.3865,276.13,76,40,6.69,GB,1707422709
248,kapa'a,22.0752,-159.319,299.14,70,75,5.66,US,1707422798
249,adi keyh,14.8444,39.3772,287.74,65,19,0.25,ER,1707422798
250,bayanhongor,46.7167,100.1167,248.22,72,5,1.77,MN,1707422799
251,okha,53.5739,142.9478,253.33,100,98,3.84,RU,1707422799
252,tondano,1.3038,124.9112,294.2,92,99,0.6,ID,1707422799
253,bawku,11.0616,-0.2417,301.24,10,0,3.51,GH,1707422800
254,new norfolk,-42.7826,147.0587,287.87,88,42,1.63,AU,1707422800
255,reggane,26.7158,0.1714,292.0,14,0,2.18,DZ,1707422801
256,el porvenir,13.7617,-87.3458,301.78,21,5,1.93,HN,1707422801
257,aykhal,66.0,111.5,239.63,100,93,2.29,RU,1707422802
258,lodeynoye pole,60.726,33.5531,253.92,95,100,2.2,RU,1707422802
259,las palmas,28.4204,-14.0131,295.59,17,0,3.09,ES,1707422803
260,burao,9.5221,45.5336,293.42,71,5,3.3,SO,1707422803
261,port macquarie,-31.4333,152.9167,292.53,82,100,4.73,AU,1707422781
262,al muwayh,22.4333,41.7583,291.14,41,59,8.21,SA,1707422804
263,monrovia,6.3005,-10.7969,301.02,82,3,3.85,LR,1707422805
264,kindu,-2.95,25.95,295.2,92,62,0.41,CD,1707422805
265,nikol'sk,53.7189,46.0712,258.51,93,100,6.91,RU,1707422806
266,daru,-9.0763,143.2092,298.01,92,100,5.5,PG,1707422806
267,brookings,44.3114,-96.7984,274.88,100,100,9.77,US,1707422807
268,kuanda,56.3161,116.0806,255.44,98,98,0.27,RU,1707422807
269,castillos,-34.1667,-53.8333,300.79,60,7,6.31,UY,1707422808
270,lensk,60.7253,114.9278,244.4,100,99,0.59,RU,1707422808
271,plastun,44.7561,136.2939,260.51,85,10,2.86,RU,1707422808
272,el calafate,-50.3408,-72.2768,287.25,56,100,5.12,AR,1707422809
273,labuan,5.2767,115.2417,299.02,85,56,3.73,MY,1707422809
274,la paz,-16.5,-68.15,286.21,62,96,3.43,BO,1707422809
275,siocon,7.7061,122.1353,297.79,89,52,2.82,PH,1707422810
276,kavieng,-2.5744,150.7967,301.5,78,100,6.26,PG,1707422810
277,kuhmo,64.1333,29.5167,244.73,100,97,1.52,FI,1707422811
278,gejiu,23.306,103.1635,277.88,93,51,1.91,CN,1707422811
279,mena,51.5217,32.2157,269.61,79,10,1.97,UA,1707422811
280,mezhdurechenskiy,59.6,65.9333,263.71,93,100,4.76,RU,1707422812
281,lethem,3.3803,-59.7968,308.53,37,99,5.6,GY,1707422812
282,littlefield,33.9173,-102.3249,288.52,19,0,8.47,US,1707422812
283,sena madureira,-9.0656,-68.6569,305.43,57,99,1.12,BR,1707422813
284,chonchi,-42.6128,-73.8092,290.71,42,100,2.76,CL,1707422587
285,newman,37.3138,-121.0208,284.29,79,39,1.79,US,1707422551
286,misratah,32.3754,15.0925,289.25,64,1,1.89,LY,1707422814
287,gerash,27.6652,54.1371,283.72,39,0,2.13,IR,1707422814
288,faya-largeau,17.9257,19.1043,292.54,17,0,4.77,TD,1707422815
289,port nelson,23.6333,-74.8333,295.81,60,37,8.5,BS,1707422815
290,afaahiti,-17.75,-149.2833,300.96,92,100,9.2,PF,1707422815
291,inarajan village,13.2736,144.7484,299.69,78,100,8.4,GU,1707422816
292,ongjin,37.9347,125.3619,272.05,66,97,1.79,KP,1707422816
293,peace river,56.2501,-117.286,269.16,84,99,1.34,CA,1707422817
294,saipan,15.1355,145.701,298.54,78,0,6.69,MP,1707422817
295,rasht,37.2808,49.5832,286.22,54,6,2.19,IR,1707422818
296,ndola,-12.9587,28.6366,292.17,82,51,1.53,ZM,1707422818
297,kroya,-7.6331,109.2461,298.87,85,11,0.83,ID,1707422818
298,dauphin,51.1494,-100.0502,266.23,86,100,7.2,CA,1707422608
299,wabag,-5.4781,143.7021,286.87,98,100,0.63,PG,1707422823
300,queenstown,-31.8976,26.8753,288.82,86,41,2.71,ZA,1707422824
301,swan hill,-35.3378,143.5544,291.07,61,0,3.61,AU,1707422824
302,kristiansund,63.1115,7.732,271.51,93,75,2.06,NO,1707422825
303,hasaki,35.7333,140.8333,273.37,61,100,8.73,JP,1707422825
304,kostrzyn,52.3985,17.2281,275.92,75,100,2.68,PL,1707422826
305,kailua-kona,19.6406,-155.9956,299.54,65,75,3.6,US,1707422826
306,huron,41.1501,-82.5499,289.85,50,100,7.04,US,1707422826
307,ain sefra,32.75,-0.5833,286.46,23,100,2.62,DZ,1707422827
308,pontes e lacerda,-15.2261,-59.3353,307.83,40,100,2.1,BR,1707422717
309,azemmour,33.2895,-8.3425,291.97,49,100,7.81,MA,1707422828
310,mirny,62.5353,113.9611,235.93,100,99,0.7,RU,1707422829
311,luganville,-15.5333,167.1667,300.58,89,100,8.03,VU,1707422695
312,ebon,4.582,168.6964,301.5,77,100,8.23,MH,1707422829
313,monroeville,40.4212,-79.7881,289.21,35,0,2.57,US,1707422830
314,volodymyr-volynskyi,50.8525,24.3236,273.35,99,100,2.95,UA,1707422830
315,mount isa,-20.7333,139.5,297.02,83,73,2.06,AU,1707422831
316,alaghsas,17.0187,8.0168,292.77,14,9,5.15,NE,1707422831
317,north bend,43.4065,-124.2243,282.68,71,40,0.0,US,1707422832
318,kostrzyn nad odra,52.5871,14.6495,275.05,91,100,2.35,PL,1707422832
319,nogliki,51.8333,143.1667,253.9,96,100,2.68,RU,1707422833
320,zhezqazghan,47.7833,67.7667,274.65,93,97,9.08,KZ,1707422833
321,kutulik,53.3508,102.7839,251.61,100,98,1.21,RU,1707422833
322,chibougamau,49.9168,-74.3659,273.62,88,100,4.39,CA,1707422834
323,pagar alam,-4.0167,103.2667,293.37,97,87,1.13,ID,1707422834
324,santa cruz,-17.8,-63.1667,305.18,55,40,7.72,BO,1707422835
325,morehead city,34.7229,-76.726,287.16,72,0,2.24,US,1707422835
326,pitkyaranta,61.5734,31.4792,257.88,95,79,3.58,RU,1707422836
327,badr hunayn,23.7829,38.7905,295.79,61,0,0.72,SA,1707422836
328,midvagur,62.0511,-7.1939,270.61,86,75,2.06,FO,1707422837
329,kalianget,-7.05,113.9333,299.49,84,34,0.98,ID,1707422837
330,geraldton,-28.7667,114.6,296.38,25,0,2.57,AU,1707422652
331,mount gambier,-37.8333,140.7667,284.08,90,91,2.76,AU,1707422838
332,saynshand,44.8824,110.1163,249.04,98,30,1.78,MN,1707422839
333,weno,7.4515,151.8468,300.6,79,100,10.61,FM,1707422839
334,sidi khaled,34.387,4.9879,289.58,21,2,1.99,DZ,1707422840
335,umm kaddadah,13.6017,26.6876,294.22,19,10,5.15,SD,1707422840
336,tolanaro,-25.0319,46.9987,297.76,87,7,5.64,MG,1707422841
337,murun-kuren,49.6342,100.1625,251.59,90,17,0.95,MN,1707422841
338,hobyo,5.3505,48.5268,299.25,75,75,9.13,SO,1707422842
339,angaur state,6.906,134.13,300.38,77,90,6.03,PW,1707422842
340,ceeldheer,3.8488,47.1806,298.98,75,100,9.44,SO,1707422843
341,nadi,-17.8,177.4167,300.15,83,40,2.06,FJ,1707422843
342,san antonio de pale,-1.4014,5.6325,301.58,76,100,4.15,GQ,1707422844
343,harstad,68.799,16.5293,269.35,71,77,8.94,NO,1707422844
344,atafu village,-8.5421,-172.5159,301.46,78,100,6.27,TK,1707422845
345,mandan,46.8267,-100.8896,271.93,93,75,11.83,US,1707422845
346,aioun,16.6614,-9.6149,299.59,9,100,4.51,MR,1707422846
347,kurganinsk,44.88,40.5986,285.48,59,100,7.85,RU,1707422846
348,la passe,45.5549,-0.8967,286.28,88,100,12.07,FR,1707422847
349,zouerate,22.7187,-12.4521,296.08,9,1,3.32,MR,1707422847
350,parras de la fuente,25.4167,-102.1833,296.1,14,4,2.38,MX,1707422848
351,alphen aan den rijn,52.1292,4.6555,279.81,95,100,2.24,NL,1707422848
352,muang phonsavan,19.45,103.2167,285.55,63,0,1.18,LA,1707422849
353,port-vila,-17.7338,168.3219,298.93,94,100,3.09,VU,1707422849
354,keetmanshoop,-26.5833,18.1333,303.71,20,78,6.69,NA,1707422850
355,fortuna,40.5982,-124.1573,284.25,81,75,5.14,US,1707422850
356,grand falls-windsor,48.9332,-55.6649,268.99,89,100,2.95,CA,1707422851
357,naro moru,-0.1676,37.0213,287.29,95,95,1.21,KE,1707422852
358,saldanha,-33.0117,17.9442,291.59,79,1,3.76,ZA,1707422852
359,brandon,27.9378,-82.2859,297.56,59,0,3.6,US,1707422852
360,byron bay,-28.65,153.6167,292.99,90,100,6.81,AU,1707422853
361,whangarei,-35.7317,174.3239,292.84,68,63,2.01,NZ,1707422853
362,rosamond,34.8641,-118.1634,283.22,56,0,8.75,US,1707422854
363,sterling,39.0062,-77.4286,287.23,39,75,3.6,US,1707422757
364,northam,51.0333,-4.2167,283.85,97,100,6.53,GB,1707422854
365,pedernales,18.0384,-71.744,299.55,54,0,3.14,DO,1707422855
366,bembereke,10.2283,2.6634,298.92,14,1,2.19,BJ,1707422855
367,valdivia,-39.8142,-73.2459,296.66,34,98,2.76,CL,1707422856
368,kayangel,8.0823,134.7173,300.48,76,53,7.26,PW,1707422856
369,karratha,-20.7377,116.8463,301.29,74,24,5.23,AU,1707422857
370,key west,24.5557,-81.7826,297.04,53,8,4.02,US,1707422571
371,paramaribo,5.8667,-55.1667,304.18,66,20,5.14,SR,1707422858
372,puerto aysen,-45.4,-72.7,291.63,65,88,2.1,CL,1707422563
373,ghat,24.9647,10.1728,288.3,21,70,2.02,LY,1707422859
374,la ferte-saint-aubin,47.7169,1.939,284.99,87,100,7.34,FR,1707422859
375,levoca,49.0217,20.5921,280.22,78,100,2.32,SK,1707422811
376,kolomyia,48.5306,25.0403,276.87,98,100,1.06,UA,1707422860
377,khandyga,62.6667,135.6,226.64,100,72,0.92,RU,1707422861
378,torquay,50.4638,-3.5143,284.74,96,100,10.28,GB,1707422861
379,san juan de miraflores,-12.1629,-76.9635,300.44,73,35,4.37,PE,1707422862
380,tha khanon,9.0302,98.9529,296.5,93,63,0.55,TH,1707422862
381,medina,24.4686,39.6142,295.39,30,20,7.72,SA,1707422863
382,ostersund,63.1792,14.6357,256.82,85,0,2.06,SE,1707422864
383,nova vicosa,-17.8919,-39.3719,298.05,82,100,1.3,BR,1707422864
384,itapirapua,-15.8233,-50.6133,301.62,75,100,1.06,BR,1707422854
385,luchegorsk,46.4764,134.2569,250.62,100,100,1.6,RU,1707422865
386,kuching,1.55,110.3333,299.84,94,40,1.03,MY,1707422866
387,holualoa,19.6228,-155.9522,297.35,65,75,3.6,US,1707422866
388,pangody,65.85,74.4859,266.97,93,100,7.69,RU,1707422867
389,altai,46.3722,96.2583,260.15,56,100,2.41,MN,1707422867
390,santa cruz cabralia,-16.2781,-39.0247,300.28,89,100,2.57,BR,1707422868
391,sao jose da coroa grande,-8.8978,-35.1478,301.94,71,95,6.0,BR,1707422868
392,kokopo,-4.352,152.2633,297.93,85,100,2.67,PG,1707422868
393,bardsir,29.9227,56.5743,277.54,27,0,1.18,IR,1707422869
394,greymouth,-42.4667,171.2,286.89,71,8,1.67,NZ,1707422869
395,xinyi,22.373,110.9475,282.85,84,100,2.7,CN,1707422870
396,iquique,-20.2208,-70.1431,298.73,71,0,4.23,CL,1707422870
397,vega de alatorre,20.0333,-96.6333,297.85,67,0,6.95,MX,1707422872
398,keflavik,64.0049,-22.5624,266.39,68,0,2.57,IS,1707422872
399,kidal,18.4411,1.4078,294.88,9,54,3.88,ML,1707422873
400,yuzhno-kurilsk,44.0306,145.8556,265.58,92,24,5.57,RU,1707422873
401,red hill,33.9996,-79.2581,288.71,46,100,0.37,US,1707422874
402,tateyama,34.9833,139.8667,279.98,74,100,6.32,JP,1707422874
403,tauranga,-37.6861,176.1667,294.55,89,100,0.89,NZ,1707422875
404,canutama,-6.5339,-64.3831,305.48,56,100,1.66,BR,1707422875
405,klaksvik,62.2266,-6.589,270.66,58,100,7.71,FO,1707422876
406,greenville,35.6127,-77.3663,288.22,39,0,1.34,US,1707422638
407,alpena,45.0617,-83.4327,283.55,80,0,5.66,US,1707422877
408,trujillo,-8.116,-79.03,300.13,74,0,3.6,PE,1707422632
409,galesong,-5.3166,119.3661,297.16,84,26,2.32,ID,1707422878
410,rongelap,11.1635,166.8941,299.76,87,100,9.23,MH,1707422878
411,choibalsan,48.0667,114.5,251.28,90,13,3.01,MN,1707422879
412,ouadda,8.0777,22.4007,297.28,30,12,2.16,CF,1707422879
413,rio grande,-32.035,-52.0986,305.21,75,16,6.57,BR,1707422741
414,kolyvan',55.3053,82.7391,268.94,89,98,7.02,RU,1707422880
415,leamington,42.0549,-82.6062,287.54,35,66,4.47,CA,1707422780
416,kondoa,-4.9,35.7833,291.92,79,10,0.76,TZ,1707422881
417,jalai nur,49.45,117.7,246.97,100,93,1.64,CN,1707422882
418,imperatriz,-5.5264,-47.4917,300.89,90,86,1.76,BR,1707422818
419,antofagasta,-23.65,-70.4,299.75,70,3,4.0,CL,1707422783
420,turgen,43.4006,77.5933,272.22,78,100,4.3,KZ,1707422883
421,novodvinsk,64.4165,40.8122,263.03,95,100,3.08,RU,1707422884
422,ishigaki,24.3448,124.1572,289.22,100,100,4.12,JP,1707422884
423,isla del bosque,22.7333,-105.85,298.36,61,16,4.03,MX,1707422885
424,champerico,14.3,-91.9167,307.45,60,3,5.69,GT,1707422886
425,pyapon,16.2833,95.6833,293.86,70,0,3.12,MM,1707422886
426,bishkek,42.87,74.59,276.26,62,49,4.05,KG,1707422887
427,petropavlovsk-kamchatsky,53.0452,158.6483,262.29,90,75,3.0,RU,1707422888
428,koumra,8.9126,17.5539,301.13,17,100,2.28,TD,1707422888
429,jaciara,-15.9653,-54.9683,304.81,52,100,1.17,BR,1707422889
430,puqi,29.7167,113.8833,274.09,90,19,1.24,CN,1707422890
431,baiti,13.745,-14.7482,306.25,8,100,3.44,SN,1707422890
432,piton saint-leu,-21.2196,55.3151,297.21,78,100,2.06,RE,1707422891
433,i-n-salah,27.1935,2.4607,291.72,15,50,3.47,DZ,1707422892
434,merizo village,13.2658,144.6691,299.46,78,100,8.51,GU,1707422893
435,san luis de la loma,17.2706,-100.8939,302.39,56,52,3.9,MX,1707422893
436,galle,6.0367,80.217,296.99,87,100,2.21,LK,1707422894
437,arendal,58.4615,8.7725,269.04,68,74,4.19,NO,1707422894
438,vernon,50.2581,-119.2691,278.01,72,39,0.45,CA,1707422895
439,puerto baquerizo moreno,-0.9,-89.6,302.7,66,40,4.12,EC,1707422896
440,tanjung pandan,-2.75,107.65,298.96,86,25,1.43,ID,1707422897
441,regina,50.4501,-104.6178,270.14,85,100,7.2,CA,1707422737
442,leiyang,26.4024,112.8591,274.7,96,32,1.27,CN,1707422898
443,suncho corral,-27.9336,-63.4294,314.99,20,100,5.36,AR,1707422898
444,east london,-33.0153,27.9116,294.34,71,0,1.29,ZA,1707422900
445,aquiraz,-3.9014,-38.3911,303.2,74,65,4.84,BR,1707422900
446,eilat,29.5581,34.9482,290.06,39,0,1.03,IL,1707422901
447,kingston,17.997,-76.7936,300.68,60,20,3.09,JM,1707422883
448,manadhoo,5.7667,73.3833,300.14,71,92,2.7,MV,1707422902
449,viana do castelo,41.6932,-8.8329,287.32,88,100,6.54,PT,1707422903
450,plettenberg bay,-34.0527,23.3716,290.41,78,6,1.91,ZA,1707422903
451,kegeyli shahar,42.7767,59.6078,279.2,56,31,4.54,UZ,1707422905
452,kamaishi,39.2667,141.8833,274.18,71,3,2.0,JP,1707422905
453,yigo village,13.5361,144.8886,298.77,70,0,7.2,GU,1707422906
454,jalalpur jattan,32.6374,74.2183,283.08,76,0,2.06,PK,1707422906
455,yatou,37.15,122.3833,268.32,84,7,2.0,CN,1707422907
456,naryn,41.4287,75.9911,262.15,72,86,4.1,KG,1707422780
457,tommot,58.9564,126.2925,246.31,99,100,0.71,RU,1707422908
458,tshabong,-26.05,22.45,302.92,22,83,4.95,BW,1707422909
459,kedrovyy,56.1667,91.8167,264.38,95,100,2.24,RU,1707422909
460,belyy yar,53.6039,91.3903,256.09,92,100,0.0,RU,1707422910
461,villa huidobro,-34.8383,-64.5869,302.65,55,100,8.49,AR,1707422910
462,silsbee,30.3491,-94.178,297.01,75,100,3.24,US,1707422911
463,howrah,22.5892,88.3103,289.15,72,20,3.6,IN,1707422911
464,fale old settlement,-9.3852,-171.2468,302.14,76,100,7.85,TK,1707422912
465,undurkhaan,47.3194,110.6556,247.93,96,8,1.73,MN,1707422912
466,menongue,-14.6585,17.691,291.91,93,79,1.79,AO,1707422913
467,happy valley-goose bay,53.3168,-60.3315,268.32,80,75,0.0,CA,1707422913
468,trairi,-3.2778,-39.2689,301.99,71,59,5.56,BR,1707422685
469,kirakira,-10.4544,161.9205,300.92,81,100,7.38,SB,1707422914
470,ola,59.5833,151.2833,248.78,88,13,3.59,RU,1707422915
471,ayabaca,-4.6398,-79.7149,287.81,71,46,2.33,PE,1707422915
472,takoradi,4.8845,-1.7554,300.28,78,7,3.93,GH,1707422916
473,qamdo,31.1667,97.2333,264.24,66,100,3.4,CN,1707422916
474,raja,8.4596,25.678,298.38,24,32,2.11,SS,1707422917
475,currais novos,-6.2608,-36.5178,305.77,37,80,6.85,BR,1707422917
476,biltine,14.5333,20.9167,295.25,19,0,3.31,TD,1707422918
477,bonthe,7.5264,-12.505,299.97,85,0,4.83,SL,1707422918
478,santiago,-33.4569,-70.6483,305.53,37,20,10.8,CL,1707422838
479,rabo de peixe,37.8,-25.5833,290.92,99,40,11.83,PT,1707422919
480,minas de marcona,-15.2119,-75.1103,297.48,69,29,6.03,PE,1707422920
481,tofol,5.3248,163.0078,300.96,68,100,8.23,FM,1707422920
482,eldama ravine,0.0516,35.7308,287.91,80,68,0.39,KE,1707422921
483,calama,-22.4667,-68.9333,297.77,24,14,8.64,CL,1707422922
484,touros,-5.1989,-35.4608,301.79,71,13,5.82,BR,1707422922
485,tetyushi,54.9382,48.8366,260.3,88,100,7.05,RU,1707422923
486,salinopolis,-0.6136,-47.3561,300.6,83,87,5.3,BR,1707422923
487,cabanglasan,8.1214,125.3275,293.72,98,81,0.7,PH,1707422924
488,smithers,54.7804,-127.1743,267.33,100,75,1.03,CA,1707422924
489,mana,5.6592,-53.7767,301.29,69,74,4.66,GF,1707422925
490,monforte de lemos,42.5216,-7.5142,285.69,89,89,3.34,ES,1707422925
491,tazovsky,67.4667,78.7,257.48,97,99,5.98,RU,1707422926
492,kankaanpaa,61.8,22.4167,254.57,100,22,2.12,FI,1707422926
493,constantia,44.1833,28.65,279.53,65,92,4.47,RO,1707422926
494,masina,-4.3836,15.3914,301.34,74,40,5.14,CD,1707422927
495,cobija,-11.0267,-68.7692,307.25,59,75,3.6,BO,1707422927
496,paraty,-23.2178,-44.7131,299.82,91,90,1.74,BR,1707422648
497,alexandria,31.2156,29.9553,289.35,62,0,1.78,EG,1707422862
498,manaure,11.7751,-72.4445,300.16,64,5,6.16,CO,1707422928
499,aurillac,44.9167,2.45,282.98,77,100,2.26,FR,1707422929
500,madison,34.7334,-86.5667,287.83,41,75,5.14,US,1707422630
501,san patricio,28.017,-97.5169,300.07,67,100,2.29,US,1707422930
502,copala,16.65,-98.9833,302.61,58,19,4.43,MX,1707422930
503,hovd,48.0056,91.6419,254.96,88,8,0.87,MN,1707422930
504,hammerfest,70.6634,23.6821,260.4,78,0,4.63,NO,1707422931
505,minab,27.1467,57.0801,291.72,64,0,1.83,IR,1707422931
506,xiva,41.3783,60.3639,279.14,45,44,3.86,UZ,1707422931
507,homer,59.6425,-151.5483,276.51,97,40,0.0,US,1707422656
508,urangan,-25.3,152.9,297.15,87,13,2.24,AU,1707422932
509,tobelo,1.7284,128.0095,299.02,86,100,0.69,ID,1707422932
510,awjilah,29.1081,21.2869,288.91,30,0,2.17,LY,1707422933
511,rufino,-34.2683,-62.7126,312.26,22,100,7.25,AR,1707422933
512,inirida,3.8653,-67.9239,303.1,68,100,0.43,CO,1707422934
513,chinde,26.8418,88.0763,279.41,68,17,2.08,NP,1707422934
514,al bawiti,28.3492,28.8659,287.68,41,50,3.07,EG,1707422840
515,coronel du graty,-27.6804,-60.9146,310.94,24,99,5.53,AR,1707422935
516,egilsstadir,65.2653,-14.3948,257.97,96,25,2.11,IS,1707422935
517,honefoss,60.168,10.2565,258.93,100,43,1.51,NO,1707422936
518,turaif,31.6725,38.6637,284.29,43,0,5.14,SA,1707422936
519,pacific grove,36.6177,-121.9166,286.42,72,75,2.24,US,1707422936
520,island harbour,50.724,-1.2758,283.79,94,100,2.68,GB,1707422937
521,visby,57.6409,18.296,265.83,92,75,0.51,SE,1707422937
522,parthenay,46.6667,-0.4167,285.34,96,100,10.18,FR,1707422938
523,el vigia,8.6219,-71.6506,300.63,80,100,2.27,VE,1707422938
524,kill devil hills,36.0307,-75.676,281.47,81,0,3.09,US,1707422938
525,nyagan,62.1406,65.3936,263.43,95,100,4.07,RU,1707422691
526,waddan,29.1614,16.139,287.82,30,0,2.29,LY,1707422939
527,sidney,-33.8679,151.2073,292.43,74,75,5.14,AU,1707422939
528,harper,4.375,-7.7169,300.24,82,2,5.28,LR,1707422940
529,ocean city,39.2776,-74.5746,286.03,68,99,2.68,US,1707422940
530,aripuana,-9.1667,-60.6333,302.4,70,99,1.62,BR,1707422940
531,remire-montjoly,4.9167,-52.2667,302.17,74,75,7.2,GF,1707422941
532,tual,-5.6667,132.75,301.28,79,100,8.43,ID,1707422941
533,goundam,16.4145,-3.6708,297.47,8,40,4.13,ML,1707422942
534,kintinku,-5.8833,35.2333,294.26,89,22,1.26,TZ,1707422942
535,pingliang,35.5392,106.6861,271.65,55,99,1.89,CN,1707422942
536,asaita,11.5636,41.4394,297.58,61,92,6.44,ET,1707422943
537,sao vicente,-23.9631,-46.3919,304.25,45,99,3.58,BR,1707422943
538,sihanoukville,10.6093,103.5296,298.12,94,20,1.03,KH,1707422944
539,georgievka,49.3314,81.5761,267.05,84,100,6.61,KZ,1707422944
540,dampit,-8.2116,112.7493,294.61,97,30,0.72,ID,1707422945
541,fort mcmurray,56.7268,-111.381,267.94,80,97,0.55,CA,1707422945
542,miches,18.9836,-69.0476,298.26,71,39,7.47,DO,1707422946
543,pirojpur,22.5667,89.9833,288.75,36,9,2.77,BD,1707422946
544,kauhava,63.103,23.0713,253.33,97,99,2.02,FI,1707422946
545,labuan bajo,-8.4964,119.8877,298.81,86,29,2.13,ID,1707422947
546,alakurtti,66.9672,30.3491,245.55,100,100,1.66,RU,1707422947
547,ezhou,30.4,114.8333,276.59,76,46,1.84,CN,1707422948
548,shuangcheng,45.35,126.2833,252.52,100,96,2.19,CN,1707422948
549,kaspiyskiy,45.3929,47.3707,281.89,63,100,5.33,RU,1707422844
550,kedougou,12.5579,-12.1743,305.77,10,82,2.12,SN,1707422949
551,krasnyy chikoy,50.3643,108.7512,249.41,100,57,0.77,RU,1707422950
552,miyako,39.6367,141.9525,273.71,69,12,2.91,JP,1707422950
553,port saint john's,-31.6229,29.5448,295.66,74,62,0.89,ZA,1707422951
554,hopewell,37.3043,-77.2872,289.09,41,96,2.59,US,1707422951
555,vila velha,-20.3297,-40.2925,302.12,77,40,5.36,BR,1707422952
556,langsa,4.4683,97.9683,296.88,94,96,1.43,ID,1707422952
557,manta,-0.95,-80.7333,303.03,83,40,6.71,EC,1707422952
558,la foa,-21.7108,165.8276,298.15,74,100,1.59,NC,1707422953
559,salinas,36.6777,-121.6555,286.64,74,40,3.09,US,1707422953
560,mar del plata,-38.0023,-57.5575,295.9,84,100,2.68,AR,1707422954
561,cassilandia,-19.1133,-51.7342,302.76,64,100,2.72,BR,1707422954
562,inhambane,-23.865,35.3833,297.35,78,3,3.42,MZ,1707422955
563,coquimbo,-29.9533,-71.3436,293.89,79,86,2.85,CL,1707422955
564,zhalantun,48.0,122.7167,255.36,89,75,3.12,CN,1707422956
565,huaicheng,23.9051,112.1931,278.64,87,74,1.05,CN,1707422956
566,arraial do cabo,-22.9661,-42.0278,303.07,74,20,5.66,BR,1707422956
567,igarka,67.4667,86.5833,247.5,100,87,2.35,RU,1707422957
568,san pedro,14.35,121.0167,298.88,82,40,1.34,PH,1707422957
569,guerrero negro,27.9769,-114.0611,290.85,51,0,5.07,MX,1707422757
570,laojunmiao,39.8333,97.7333,269.0,37,80,2.94,CN,1707422838
571,talisay,10.2447,123.8494,299.16,83,75,5.14,PH,1707422959
572,tobruk,32.0836,23.9764,289.29,63,0,2.81,LY,1707422959
573,treasure island,27.7692,-82.769,297.18,54,0,3.6,US,1707422960
574,berezovo,63.9381,65.0419,262.75,97,91,3.77,RU,1707422960
575,nicoya,10.1483,-85.452,306.08,41,12,6.92,CR,1707422961
576,carlsbad,33.1581,-117.3506,289.02,67,75,7.15,US,1707422946
577,fonte boa,-2.4959,-66.2662,302.34,76,100,0.49,BR,1707422962
578,phillip island,-38.4835,145.231,290.64,88,54,4.75,AU,1707422962
579,zaragoza,41.6561,-0.8773,289.27,66,100,2.24,ES,1707422962
580,palu,-0.8917,119.8707,297.38,94,100,0.8,ID,1707422963
581,fisterra,42.9049,-9.2629,288.01,84,79,11.78,ES,1707422963
582,salalah,17.0151,54.0924,298.2,33,0,4.12,OM,1707422964
583,t'q'ibuli,42.3512,42.9987,280.66,74,100,2.03,GE,1707422964
584,cacheu,12.2706,-16.1658,298.11,48,99,2.89,GW,1707422965
585,labytnangi,66.6572,66.4183,265.91,93,100,8.41,RU,1707422965
586,torghay,49.6339,63.4981,275.69,97,100,10.31,KZ,1707422966
587,diamantina,-18.2494,-43.6003,292.3,89,100,1.38,BR,1707422854
588,jijiga,9.35,42.8,291.97,68,21,2.78,ET,1707422966
589,susuman,62.7833,148.1667,235.36,100,91,1.34,RU,1707422967
590,broken hill,-31.95,141.4333,293.13,35,0,4.77,AU,1707422939
591,lautoka,-17.6167,177.4667,300.07,83,40,2.06,FJ,1707422968
592,puducherry,11.9333,79.8167,296.97,83,18,1.0,IN,1707422968
593,ketchikan,55.3422,-131.6461,276.14,69,75,1.54,US,1707422795
594,junagarh,19.8667,82.9333,292.12,46,39,0.3,IN,1707422969
595,ampara,7.2833,81.6667,296.45,84,100,1.75,LK,1707422970
